[{"search": "Alter do Chão", "geometry": {"lat": 39.223624, "lng": -7.7348622}, "components": {"ISO_3166-1_alpha-2": "PT", "ISO_3166-1_alpha-3": "PRT", "_category": "place", "_type": "municipality", "continent": "Europe", "country": "Portugal", "country_code": "pt", "county": "Portalegre", "county_code": "PTG", "municipality": "Alter do Chão", "political_union": "European Union"}, "currency": {"alternate_symbols": [], "decimal_mark": ",", "html_entity": "&#x20AC;", "iso_code": "EUR", "iso_numeric": "978", "name": "Euro", "smallest_denomination": 1, "subunit": "Cent", "subunit_to_unit": 100, "symbol": "€", "symbol_first": 0, "thousands_separator": "."}, "link": "/alter-do-chao-237-c.html"}, {"search": "Aracaju", "geometry": {"lat": -10.9162061, "lng": -37.0774655}, "components": {"ISO_3166-1_alpha-2": "BR", "ISO_3166-1_alpha-3": "BRA", "_category": "place", "_type": "city", "city": "Aracaju", "continent": "South America", "country": "Brasil", "country_code": "br", "municipality": "Região Geográfica Imediata de Aracaju", "region": "Região Nordeste", "state": "Sergipe", "state_code": "SE", "state_district": "Região Geográfica Intermediária de Aracaju"}, "currency": {"decimal_mark": ",", "html_entity": "R$", "iso_code": "BRL", "iso_numeric": "986", "name": "Brazilian Real", "smallest_denomination": 5, "subunit": "Centavo", "subunit_to_unit": 100, "symbol": "R$", "symbol_first": 1, "thousands_separator": "."}, "link": "/aracaju-182-c.html"}, {"search": "Arraial d'Ajuda", "geometry": {"lat": -16.4904102, "lng": -39.1771303}, "components": {"ISO_3166-1_alpha-2": "BR", "ISO_3166-1_alpha-3": "BRA", "_category": "place", "_type": "neighbourhood", "city": "Porto Seguro", "city_district": "Arraial D'Ajuda", "continent": "South America", "country": "Brasil", "country_code": "br", "municipality": "Região Geográfica Imediata de Eunápolis - Porto Seguro", "postcode": "45816-000", "region": "Região Nordeste", "state": "Bahia", "state_code": "BA", "state_district": "Região Geográfica Intermediária de Ilhéus-Itabuna"}, "currency": {"decimal_mark": ",", "html_entity": "R$", "iso_code": "BRL", "iso_numeric": "986", "name": "Brazilian Real", "smallest_denomination": 5, "subunit": "Centavo", "subunit_to_unit": 100, "symbol": "R$", "symbol_first": 1, "thousands_separator": "."}, "link": "/arraial-dajuda-bahia-54-c.html"}, {"search": "Arraial do Cabo", "geometry": {"lat": -22.9662839, "lng": -42.024427}, "components": {"ISO_3166-1_alpha-2": "BR", "ISO_3166-1_alpha-3": "BRA", "_category": "place", "_type": "city", "continent": "South America", "country": "Brasil", "country_code": "br", "municipality": "Região Geográfica Imediata de Cabo Frio", "postcode": "28930-000", "region": "Região Sudeste", "state": "Rio de Janeiro", "state_code": "RJ", "state_district": "Região Geográfica Intermediária de Macaé-Rio das Ostras-Cabo Frio", "town": "Arraial do Cabo"}, "currency": {"decimal_mark": ",", "html_entity": "R$", "iso_code": "BRL", "iso_numeric": "986", "name": "Brazilian Real", "smallest_denomination": 5, "subunit": "Centavo", "subunit_to_unit": 100, "symbol": "R$", "symbol_first": 1, "thousands_separator": "."}, "link": "/arraial-do-cabo-190-c.html"}, {"search": "Balneário Camboriú", "geometry": {"lat": -26.9924395, "lng": -48.6339782}, "components": {"ISO_3166-1_alpha-2": "BR", "ISO_3166-1_alpha-3": "BRA", "_category": "place", "_type": "city", "city": "Balneário Camboriú", "continent": "South America", "country": "Brasil", "country_code": "br", "municipality": "Região Geográfica Imediata de Itajaí", "region": "Região Geográfica Intermediária de Blumenau", "state": "Santa Catarina", "state_code": "SC"}, "currency": {"decimal_mark": ",", "html_entity": "R$", "iso_code": "BRL", "iso_numeric": "986", "name": "Brazilian Real", "smallest_denomination": 5, "subunit": "Centavo", "subunit_to_unit": 100, "symbol": "R$", "symbol_first": 1, "thousands_separator": "."}, "link": "/balneario-camboriu-santa-catarina-69-c.html"}, {"search": "Belo Horizonte", "geometry": {"lat": -19.9227318, "lng": -43.9450948}, "components": {"ISO_3166-1_alpha-2": "BR", "ISO_3166-1_alpha-3": "BRA", "_category": "place", "_type": "city", "city": "Belo Horizonte", "continent": "South America", "country": "Brasil", "country_code": "br", "county": "Região Metropolitana de Belo Horizonte", "municipality": "Região Geográfica Imediata de Belo Horizonte", "region": "Região Sudeste", "state": "Minas Gerais", "state_code": "MG", "state_district": "Região Geográfica Intermediária de Belo Horizonte"}, "currency": {"decimal_mark": ",", "html_entity": "R$", "iso_code": "BRL", "iso_numeric": "986", "name": "Brazilian Real", "smallest_denomination": 5, "subunit": "Centavo", "subunit_to_unit": 100, "symbol": "R$", "symbol_first": 1, "thousands_separator": "."}, "link": "/belo-horizonte-203-c.html"}, {"search": "Belém", "geometry": {"lat": 31.7043556, "lng": 35.2061876}, "components": {"ISO_3166-1_alpha-2": "PS", "ISO_3166-1_alpha-3": "PSE", "_category": "place", "_type": "city", "continent": "Asia", "country": "Territórios Palestinianos", "country_code": "ps", "county": "منطقة أ", "region": "Cisjordânia", "town": "Belém"}, "currency": {"alternate_symbols": ["ש״ח", "NIS"], "decimal_mark": ".", "html_entity": "&#x20AA;", "iso_code": "ILS", "iso_numeric": "376", "name": "Israeli New Sheqel", "smallest_denomination": 10, "subunit": "Agora", "subunit_to_unit": 100, "symbol": "₪", "symbol_first": 1, "thousands_separator": ","}, "link": "/belem-para-236-c.html"}, {"search": "Blumenau", "geometry": {"lat": -26.9195567, "lng": -49.0658025}, "components": {"ISO_3166-1_alpha-2": "BR", "ISO_3166-1_alpha-3": "BRA", "_category": "place", "_type": "city", "city": "Blumenau", "continent": "South America", "country": "Brasil", "country_code": "br", "municipality": "Região Geográfica Imediata de Blumenau", "region": "Região Geográfica Intermediária de Blumenau", "state": "Santa Catarina", "state_code": "SC"}, "currency": {"decimal_mark": ",", "html_entity": "R$", "iso_code": "BRL", "iso_numeric": "986", "name": "Brazilian Real", "smallest_denomination": 5, "subunit": "Centavo", "subunit_to_unit": 100, "symbol": "R$", "symbol_first": 1, "thousands_separator": "."}, "link": "/blumenau-211-c.html"}, {"search": "Bombinhas", "geometry": {"lat": -27.1519159, "lng": -48.4875691}, "components": {"ISO_3166-1_alpha-2": "BR", "ISO_3166-1_alpha-3": "BRA", "_category": "place", "_type": "city", "continent": "South America", "country": "Brasil", "country_code": "br", "municipality": "Região Geográfica Imediata de Itajaí", "region": "Região Geográfica Intermediária de Blumenau", "state": "Santa Catarina", "state_code": "SC", "town": "Bombinhas"}, "currency": {"decimal_mark": ",", "html_entity": "R$", "iso_code": "BRL", "iso_numeric": "986", "name": "Brazilian Real", "smallest_denomination": 5, "subunit": "Centavo", "subunit_to_unit": 100, "symbol": "R$", "symbol_first": 1, "thousands_separator": "."}, "link": "/bombinhas-santa-catarina-66-c.html"}, {"search": "Bonito", "geometry": {"lat": 41.09772, "lng": 15.001344}, "components": {"ISO_3166-1_alpha-2": "IT", "ISO_3166-1_alpha-3": "ITA", "_category": "place", "_type": "village", "continent": "Europe", "country": "Itália", "country_code": "it", "county": "Avellino", "county_code": "AV", "municipality": "Terre dell’Ufita", "political_union": "European Union", "state": "Campania", "state_code": "CAM", "village": "Bonito"}, "currency": {"alternate_symbols": [], "decimal_mark": ",", "html_entity": "&#x20AC;", "iso_code": "EUR", "iso_numeric": "978", "name": "Euro", "smallest_denomination": 1, "subunit": "Cent", "subunit_to_unit": 100, "symbol": "€", "symbol_first": 0, "thousands_separator": "."}, "link": "/bonito-100-c.html"}, {"search": "Brasília", "geometry": {"lat": -10.3333333, "lng": -53.2}, "components": {"ISO_3166-1_alpha-2": "BR", "ISO_3166-1_alpha-3": "BRA", "_category": "place", "_type": "country", "continent": "South America", "country": "Brasil", "country_code": "br"}, "currency": {"decimal_mark": ",", "html_entity": "R$", "iso_code": "BRL", "iso_numeric": "986", "name": "Brazilian Real", "smallest_denomination": 5, "subunit": "Centavo", "subunit_to_unit": 100, "symbol": "R$", "symbol_first": 1, "thousands_separator": "."}, "link": "/brasilia-57-c.html"}, {"search": "Búzios", "geometry": {"lat": -22.7597805, "lng": -41.8875267}, "components": {"ISO_3166-1_alpha-2": "BR", "ISO_3166-1_alpha-3": "BRA", "_category": "place", "_type": "city", "continent": "South America", "country": "Brasil", "country_code": "br", "municipality": "Região Geográfica Imediata de Cabo Frio", "region": "Região Sudeste", "state": "Rio de Janeiro", "state_code": "RJ", "state_district": "Região Geográfica Intermediária de Macaé-Rio das Ostras-Cabo Frio", "town": "Armação dos Búzios"}, "currency": {"decimal_mark": ",", "html_entity": "R$", "iso_code": "BRL", "iso_numeric": "986", "name": "Brazilian Real", "smallest_denomination": 5, "subunit": "Centavo", "subunit_to_unit": 100, "symbol": "R$", "symbol_first": 1, "thousands_separator": "."}, "link": "/buzios-193-c.html"}, {"search": "Caldas Novas", "geometry": {"lat": -17.745, "lng": -48.625}, "components": {"ISO_3166-1_alpha-2": "BR", "ISO_3166-1_alpha-3": "BRA", "_category": "place", "_type": "city", "continent": "South America", "country": "Brasil", "country_code": "br", "municipality": "Região Geográfica Imediata de Caldas Novas-Morrinhos", "region": "Região Centro-Oeste", "state": "Goiás", "state_code": "GO", "state_district": "Região Geográfica Intermediária de Itumbiara", "town": "Caldas Novas"}, "currency": {"decimal_mark": ",", "html_entity": "R$", "iso_code": "BRL", "iso_numeric": "986", "name": "Brazilian Real", "smallest_denomination": 5, "subunit": "Centavo", "subunit_to_unit": 100, "symbol": "R$", "symbol_first": 1, "thousands_separator": "."}, "link": "/caldas-novas-214-c.html"}, {"search": "Campos do Jordão", "geometry": {"lat": -22.7395263, "lng": -45.5912829}, "components": {"ISO_3166-1_alpha-2": "BR", "ISO_3166-1_alpha-3": "BRA", "_category": "place", "_type": "city", "continent": "South America", "country": "Brasil", "country_code": "br", "county": "Região Metropolitana do Vale do Paraíba e Litoral Norte", "municipality": "Região Imediata de Taubaté-Pindamonhangaba", "region": "Região Sudeste", "state": "São Paulo", "state_code": "SP", "state_district": "Região Geográfica Intermediária de São José dos Campos", "town": "Campos do Jordão"}, "currency": {"decimal_mark": ",", "html_entity": "R$", "iso_code": "BRL", "iso_numeric": "986", "name": "Brazilian Real", "smallest_denomination": 5, "subunit": "Centavo", "subunit_to_unit": 100, "symbol": "R$", "symbol_first": 1, "thousands_separator": "."}, "link": "/campos-jordao-119-c.html"}, {"search": "Canoa Quebrada", "geometry": {"lat": -4.5244689, "lng": -37.7057441}, "components": {"ISO_3166-1_alpha-2": "BR", "ISO_3166-1_alpha-3": "BRA", "_category": "place", "_type": "village", "continent": "South America", "country": "Brasil", "country_code": "br", "municipality": "Região Geográfica Imediata de Aracati", "postcode": "62800-000", "region": "Região Nordeste", "state": "Ceará", "state_code": "CE", "state_district": "Região Geográfica Intermediária de Quixadá", "town": "Aracati", "village": "Canoa Quebrada"}, "currency": {"decimal_mark": ",", "html_entity": "R$", "iso_code": "BRL", "iso_numeric": "986", "name": "Brazilian Real", "smallest_denomination": 5, "subunit": "Centavo", "subunit_to_unit": 100, "symbol": "R$", "symbol_first": 1, "thousands_separator": "."}, "link": "/canoa-quebrada-ceara-18-c.html"}, {"search": "Capitólio", "geometry": {"lat": -20.6142437, "lng": -46.0487652}, "components": {"ISO_3166-1_alpha-2": "BR", "ISO_3166-1_alpha-3": "BRA", "_category": "place", "_type": "village", "continent": "South America", "country": "Brasil", "country_code": "br", "municipality": "Região Geográfica Imediata de Piumhi", "region": "Região Sudeste", "state": "Minas Gerais", "state_code": "MG", "state_district": "Região Geográfica Intermediária de Varginha", "village": "Capitólio"}, "currency": {"decimal_mark": ",", "html_entity": "R$", "iso_code": "BRL", "iso_numeric": "986", "name": "Brazilian Real", "smallest_denomination": 5, "subunit": "Centavo", "subunit_to_unit": 100, "symbol": "R$", "symbol_first": 1, "thousands_separator": "."}, "link": "/capitolio-243-c.html"}, {"search": "Chapada Diamantina", "geometry": {"lat": -12.8277272, "lng": -41.4277117}, "components": {"ISO_3166-1_alpha-2": "BR", "ISO_3166-1_alpha-3": "BRA", "_category": "unknown", "_type": "mountain_range", "continent": "South America", "country": "Brasil", "country_code": "br", "mountain_range": "Chapada Diamantina", "municipality": "Região Geográfica Imediata de Seabra", "region": "Região Nordeste", "state": "Bahia", "state_code": "BA", "state_district": "Região Geográfica Intermediária de Feira de Santana", "village": "Mucugê"}, "currency": {"decimal_mark": ",", "html_entity": "R$", "iso_code": "BRL", "iso_numeric": "986", "name": "Brazilian Real", "smallest_denomination": 5, "subunit": "Centavo", "subunit_to_unit": 100, "symbol": "R$", "symbol_first": 1, "thousands_separator": "."}, "link": "/chapadadiamantina-221-c.html"}, {"search": "Chapada dos Veadeiros", "geometry": {"lat": -13.906784, "lng": -47.4161212}, "components": {"ISO_3166-1_alpha-2": "BR", "ISO_3166-1_alpha-3": "BRA", "_category": "travel/tourism", "_type": "attraction", "attraction": "Parque Nacional da Chapada dos Veadeiros", "continent": "South America", "country": "Brasil", "country_code": "br", "municipality": "Região Geográfica Imediata de Flores de Goiás", "region": "Região Centro-Oeste", "state": "Goiás", "state_code": "GO", "state_district": "Região Geográfica Intermediária de Luziânia-Águas Lindas de Goiás", "village": "Cavalcante"}, "currency": {"decimal_mark": ",", "html_entity": "R$", "iso_code": "BRL", "iso_numeric": "986", "name": "Brazilian Real", "smallest_denomination": 5, "subunit": "Centavo", "subunit_to_unit": 100, "symbol": "R$", "symbol_first": 1, "thousands_separator": "."}, "link": "/chapadadosveadeiros-235-c.html"}, {"search": "Curitiba", "geometry": {"lat": -25.4295963, "lng": -49.2712724}, "components": {"ISO_3166-1_alpha-2": "BR", "ISO_3166-1_alpha-3": "BRA", "_category": "place", "_type": "city", "city": "Curitiba", "continent": "South America", "country": "Brasil", "country_code": "br", "county": "Região Metropolitana de Curitiba", "municipality": "Região Geográfica Imediata de Curitiba", "region": "Região Sul", "state": "Paraná", "state_code": "PR", "state_district": "Região Geográfica Intermediária de Curitiba"}, "currency": {"decimal_mark": ",", "html_entity": "R$", "iso_code": "BRL", "iso_numeric": "986", "name": "Brazilian Real", "smallest_denomination": 5, "subunit": "Centavo", "subunit_to_unit": 100, "symbol": "R$", "symbol_first": 1, "thousands_separator": "."}, "link": "/curitiba-185-c.html"}, {"search": "Diamantina", "geometry": {"lat": -18.2440862, "lng": -43.6006487}, "components": {"ISO_3166-1_alpha-2": "BR", "ISO_3166-1_alpha-3": "BRA", "_category": "place", "_type": "city", "continent": "South America", "country": "Brasil", "country_code": "br", "municipality": "Região Geográfica Imediata de Diamantina", "region": "Região Sudeste", "state": "Minas Gerais", "state_code": "MG", "state_district": "Região Geográfica Intermediária de Teófilo Otoni", "town": "Diamantina"}, "currency": {"decimal_mark": ",", "html_entity": "R$", "iso_code": "BRL", "iso_numeric": "986", "name": "Brazilian Real", "smallest_denomination": 5, "subunit": "Centavo", "subunit_to_unit": 100, "symbol": "R$", "symbol_first": 1, "thousands_separator": "."}, "link": "/diamantina-204-c.html"}, {"search": "Fernando de Noronha", "geometry": {"lat": -3.8548681, "lng": -32.4208941}, "components": {"ISO_3166-1_alpha-2": "BR", "ISO_3166-1_alpha-3": "BRA", "_category": "place", "_type": "city", "city": "Fernando de Noronha", "continent": "South America", "country": "Brasil", "country_code": "br", "municipality": "Região Geográfica Imediata do Recife", "postcode": "53990-000", "region": "Região Nordeste", "state": "Pernambuco", "state_code": "PE", "state_district": "Região Geográfica Intermediária do Recife"}, "currency": {"decimal_mark": ",", "html_entity": "R$", "iso_code": "BRL", "iso_numeric": "986", "name": "Brazilian Real", "smallest_denomination": 5, "subunit": "Centavo", "subunit_to_unit": 100, "symbol": "R$", "symbol_first": 1, "thousands_separator": "."}, "link": "/fernando-de-noronha-72-c.html"}, {"search": "Florianópolis", "geometry": {"lat": -27.5973002, "lng": -48.5496098}, "components": {"ISO_3166-1_alpha-2": "BR", "ISO_3166-1_alpha-3": "BRA", "_category": "place", "_type": "city", "city": "Florianópolis", "continent": "South America", "country": "Brasil", "country_code": "br", "municipality": "Região Geográfica Imediata de Florianópolis", "region": "Região Geográfica Intermediária de Florianópolis", "state": "Santa Catarina", "state_code": "SC"}, "currency": {"decimal_mark": ",", "html_entity": "R$", "iso_code": "BRL", "iso_numeric": "986", "name": "Brazilian Real", "smallest_denomination": 5, "subunit": "Centavo", "subunit_to_unit": 100, "symbol": "R$", "symbol_first": 1, "thousands_separator": "."}, "link": "/florianopolis-65-c.html"}, {"search": "Fortaleza", "geometry": {"lat": -3.7304512, "lng": -38.5217989}, "components": {"ISO_3166-1_alpha-2": "BR", "ISO_3166-1_alpha-3": "BRA", "_category": "place", "_type": "city", "city": "Fortaleza", "continent": "South America", "country": "Brasil", "country_code": "br", "municipality": "Região Geográfica Imediata de Fortaleza", "region": "Região Nordeste", "state": "Ceará", "state_code": "CE", "state_district": "Região Geográfica Intermediária de Fortaleza"}, "currency": {"decimal_mark": ",", "html_entity": "R$", "iso_code": "BRL", "iso_numeric": "986", "name": "Brazilian Real", "smallest_denomination": 5, "subunit": "Centavo", "subunit_to_unit": 100, "symbol": "R$", "symbol_first": 1, "thousands_separator": "."}, "link": "/fortaleza-142-c.html"}, {"search": "Foz do Iguaçu", "geometry": {"lat": -25.5401479, "lng": -54.5858139}, "components": {"ISO_3166-1_alpha-2": "BR", "ISO_3166-1_alpha-3": "BRA", "_category": "place", "_type": "city", "city": "Foz do Iguaçu", "continent": "South America", "country": "Brasil", "country_code": "br", "municipality": "Região Geográfica Imediata de Foz do Iguaçu", "region": "Região Sul"}, "currency": {"decimal_mark": ",", "html_entity": "R$", "iso_code": "BRL", "iso_numeric": "986", "name": "Brazilian Real", "smallest_denomination": 5, "subunit": "Centavo", "subunit_to_unit": 100, "symbol": "R$", "symbol_first": 1, "thousands_separator": "."}, "link": "/foz-do-iguacu-85-c.html"}, {"search": "Gramado", "geometry": {"lat": -29.3787488, "lng": -50.8724941}, "components": {"ISO_3166-1_alpha-2": "BR", "ISO_3166-1_alpha-3": "BRA", "_category": "place", "_type": "city", "continent": "South America", "country": "Brasil", "country_code": "br", "municipality": "Região Geográfica Imediata de Caxias do Sul", "postcode": "95670-000", "region": "Região Sul", "state": "Rio Grande do Sul", "state_code": "RS", "state_district": "Região Geográfica Intermediária de Caxias do Sul", "town": "Gramado"}, "currency": {"decimal_mark": ",", "html_entity": "R$", "iso_code": "BRL", "iso_numeric": "986", "name": "Brazilian Real", "smallest_denomination": 5, "subunit": "Centavo", "subunit_to_unit": 100, "symbol": "R$", "symbol_first": 1, "thousands_separator": "."}, "link": "/gramado-canela-7-c.html"}, {"search": "Ilha Grande", "geometry": {"lat": -23.1555405, "lng": -44.2344809}, "components": {"ISO_3166-1_alpha-2": "BR", "ISO_3166-1_alpha-3": "BRA", "_category": "road", "_type": "road", "city": "Angra dos Reis", "continent": "South America", "country": "Brasil", "country_code": "br", "municipality": "Região Geográfica Imediata de Angra dos Reis", "place": "Ilha Grande", "region": "Região Sudeste", "state": "Rio de Janeiro", "state_code": "RJ", "state_district": "Região Geográfica Intermediária do Rio de Janeiro"}, "currency": {"decimal_mark": ",", "html_entity": "R$", "iso_code": "BRL", "iso_numeric": "986", "name": "Brazilian Real", "smallest_denomination": 5, "subunit": "Centavo", "subunit_to_unit": 100, "symbol": "R$", "symbol_first": 1, "thousands_separator": "."}, "link": "/ilha-grande-191-c.html"}, {"search": "Ilhabela", "geometry": {"lat": -23.816628, "lng": -45.368685}, "components": {"ISO_3166-1_alpha-2": "BR", "ISO_3166-1_alpha-3": "BRA", "_category": "place", "_type": "city", "continent": "South America", "country": "Brasil", "country_code": "br", "county": "Região Metropolitana do Vale do Paraíba e Litoral Norte", "municipality": "Região Imediata de Caraguatatuba-Ubatuba-São Sebastião", "region": "Região Sudeste", "state": "São Paulo", "state_code": "SP", "state_district": "Região Geográfica Intermediária de São José dos Campos", "town": "Ilhabela"}, "currency": {"decimal_mark": ",", "html_entity": "R$", "iso_code": "BRL", "iso_numeric": "986", "name": "Brazilian Real", "smallest_denomination": 5, "subunit": "Centavo", "subunit_to_unit": 100, "symbol": "R$", "symbol_first": 1, "thousands_separator": "."}, "link": "/ilhabela-229-c.html"}, {"search": "Itacaré", "geometry": {"lat": -14.2781298, "lng": -38.9951418}, "components": {"ISO_3166-1_alpha-2": "BR", "ISO_3166-1_alpha-3": "BRA", "_category": "place", "_type": "city", "continent": "South America", "country": "Brasil", "country_code": "br", "municipality": "Região Geográfica Imediata de Ilhéus – Itabuna", "region": "Região Nordeste", "state": "Bahia", "state_code": "BA", "state_district": "Região Geográfica Intermediária de Ilhéus-Itabuna", "town": "Itacaré"}, "currency": {"decimal_mark": ",", "html_entity": "R$", "iso_code": "BRL", "iso_numeric": "986", "name": "Brazilian Real", "smallest_denomination": 5, "subunit": "Centavo", "subunit_to_unit": 100, "symbol": "R$", "symbol_first": 1, "thousands_separator": "."}, "link": "/itacare-227-c.html"}, {"search": "Jalapão", "geometry": {"lat": -10.5552994, "lng": -46.6568419}, "components": {"ISO_3166-1_alpha-2": "BR", "ISO_3166-1_alpha-3": "BRA", "_category": "unknown", "_type": "sand", "continent": "South America", "country": "Brasil", "country_code": "br", "municipality": "Região Geográfica Imediata de Palmas", "region": "Região Norte", "sand": "Dunas do Jalapão", "state": "Tocantins", "state_code": "TO", "state_district": "Região Geográfica Intermediária de Palmas", "village": "Mateiros"}, "currency": {"decimal_mark": ",", "html_entity": "R$", "iso_code": "BRL", "iso_numeric": "986", "name": "Brazilian Real", "smallest_denomination": 5, "subunit": "Centavo", "subunit_to_unit": 100, "symbol": "R$", "symbol_first": 1, "thousands_separator": "."}, "link": "/jalapao-219-c.html"}, {"search": "Jericoacoara", "geometry": {"lat": -2.8986278, "lng": -40.4506081}, "components": {"ISO_3166-1_alpha-2": "BR", "ISO_3166-1_alpha-3": "BRA", "_category": "place", "_type": "city", "continent": "South America", "country": "Brasil", "country_code": "br", "municipality": "Região Geográfica Imediata de Acaraú", "region": "Região Nordeste", "state": "Ceará", "state_code": "CE", "state_district": "Região Geográfica Intermediária de Sobral", "town": "Jijoca de Jericoacoara"}, "currency": {"decimal_mark": ",", "html_entity": "R$", "iso_code": "BRL", "iso_numeric": "986", "name": "Brazilian Real", "smallest_denomination": 5, "subunit": "Centavo", "subunit_to_unit": 100, "symbol": "R$", "symbol_first": 1, "thousands_separator": "."}, "link": "/jericoacoara-17-c.html"}, {"search": "João Pessoa", "geometry": {"lat": -7.1215981, "lng": -34.882028}, "components": {"ISO_3166-1_alpha-2": "BR", "ISO_3166-1_alpha-3": "BRA", "_category": "place", "_type": "city", "city": "João Pessoa", "continent": "South America", "country": "Brasil", "country_code": "br", "county": "Região Metropolitana de João Pessoa", "municipality": "Região Geográfica Imediata de João Pessoa", "region": "Região Nordeste", "state": "Paraíba", "state_code": "PB", "state_district": "Região Geográfica Intermediária de João Pessoa"}, "currency": {"decimal_mark": ",", "html_entity": "R$", "iso_code": "BRL", "iso_numeric": "986", "name": "Brazilian Real", "smallest_denomination": 5, "subunit": "Centavo", "subunit_to_unit": 100, "symbol": "R$", "symbol_first": 1, "thousands_separator": "."}, "link": "/joao-pessoa-109-c.html"}, {"search": "Lençóis Maranhenses", "geometry": {"lat": -2.5392872, "lng": -43.0169994}, "components": {"ISO_3166-1_alpha-2": "BR", "ISO_3166-1_alpha-3": "BRA", "_category": "travel/tourism", "_type": "attraction", "attraction": "Parque Nacional dos Lençois Maranhenses", "continent": "South America", "country": "Brasil", "country_code": "br", "municipality": "Região Geográfica Imediata de Barreirinhas", "postcode": "65195-000", "region": "Região Nordeste", "state": "Maranhão", "state_code": "MA", "state_district": "Região Geográfica Intermediária de São Luís", "town": "Santo Amaro do Maranhão"}, "currency": {"decimal_mark": ",", "html_entity": "R$", "iso_code": "BRL", "iso_numeric": "986", "name": "Brazilian Real", "smallest_denomination": 5, "subunit": "Centavo", "subunit_to_unit": 100, "symbol": "R$", "symbol_first": 1, "thousands_separator": "."}, "link": "/lencois-maranhenses-220-c.html"}, {"search": "Maceió", "geometry": {"lat": -9.6476843, "lng": -35.7339264}, "components": {"ISO_3166-1_alpha-2": "BR", "ISO_3166-1_alpha-3": "BRA", "_category": "place", "_type": "city", "city": "Maceió", "continent": "South America", "country": "Brasil", "country_code": "br", "municipality": "Região Geográfica Imediata de Maceió", "region": "Região Nordeste", "state": "Alagoas", "state_code": "AL", "state_district": "Região Geográfica Intermediária de Maceió"}, "currency": {"decimal_mark": ",", "html_entity": "R$", "iso_code": "BRL", "iso_numeric": "986", "name": "Brazilian Real", "smallest_denomination": 5, "subunit": "Centavo", "subunit_to_unit": 100, "symbol": "R$", "symbol_first": 1, "thousands_separator": "."}, "link": "/maceio-143-c.html"}, {"search": "Manaus", "geometry": {"lat": -3.1316333, "lng": -59.9825041}, "components": {"ISO_3166-1_alpha-2": "BR", "ISO_3166-1_alpha-3": "BRA", "_category": "place", "_type": "city", "city": "Manaus", "continent": "South America", "country": "Brasil", "country_code": "br", "municipality": "Região Geográfica Imediata de Manaus", "postcode": "69000-000", "region": "Região Norte", "state": "Amazonas", "state_code": "AM", "state_district": "Região Geográfica Intermediária de Manaus"}, "currency": {"decimal_mark": ",", "html_entity": "R$", "iso_code": "BRL", "iso_numeric": "986", "name": "Brazilian Real", "smallest_denomination": 5, "subunit": "Centavo", "subunit_to_unit": 100, "symbol": "R$", "symbol_first": 1, "thousands_separator": "."}, "link": "/manaus-99-c.html"}, {"search": "Maragogi", "geometry": {"lat": -9.0118278, "lng": -35.222512}, "components": {"ISO_3166-1_alpha-2": "BR", "ISO_3166-1_alpha-3": "BRA", "_category": "place", "_type": "city", "continent": "South America", "country": "Brasil", "country_code": "br", "municipality": "Região Geográfica Imediata de Porto Calvo-São Luís do Quitunde", "region": "Região Nordeste", "state": "Alagoas", "state_code": "AL", "state_district": "Região Geográfica Intermediária de Maceió", "town": "Maragogi"}, "currency": {"decimal_mark": ",", "html_entity": "R$", "iso_code": "BRL", "iso_numeric": "986", "name": "Brazilian Real", "smallest_denomination": 5, "subunit": "Centavo", "subunit_to_unit": 100, "symbol": "R$", "symbol_first": 1, "thousands_separator": "."}, "link": "/maragogi-145-c.html"}, {"search": "Morro de São Paulo", "geometry": {"lat": -13.3769977, "lng": -38.9156107}, "components": {"ISO_3166-1_alpha-2": "BR", "ISO_3166-1_alpha-3": "BRA", "_category": "place", "_type": "village", "continent": "South America", "country": "Brasil", "country_code": "br", "municipality": "Região Geográfica Imediata de Valença", "postcode": "45428-000", "region": "Região Nordeste", "state": "Bahia", "state_code": "BA", "state_district": "Região Geográfica Intermediária de Santo Antônio de Jesus", "town": "Cairu", "village": "Morro de São Paulo"}, "currency": {"decimal_mark": ",", "html_entity": "R$", "iso_code": "BRL", "iso_numeric": "986", "name": "Brazilian Real", "smallest_denomination": 5, "subunit": "Centavo", "subunit_to_unit": 100, "symbol": "R$", "symbol_first": 1, "thousands_separator": "."}, "link": "/morro-de-sao-paulo-bahia-15-c.html"}, {"search": "Natal", "geometry": {"lat": -5.805398, "lng": -35.2080905}, "components": {"ISO_3166-1_alpha-2": "BR", "ISO_3166-1_alpha-3": "BRA", "_category": "place", "_type": "city", "city": "Natal", "continent": "South America", "country": "Brasil", "country_code": "br", "municipality": "Região Geográfica Imediata de Natal", "region": "Região Nordeste", "state": "Rio Grande do Norte", "state_code": "RN", "state_district": "Região Geográfica Intermediária de Natal"}, "currency": {"decimal_mark": ",", "html_entity": "R$", "iso_code": "BRL", "iso_numeric": "986", "name": "Brazilian Real", "smallest_denomination": 5, "subunit": "Centavo", "subunit_to_unit": 100, "symbol": "R$", "symbol_first": 1, "thousands_separator": "."}, "link": "/natal-20-c.html"}, {"search": "Ouro Preto", "geometry": {"lat": -20.385527, "lng": -43.5035214}, "components": {"ISO_3166-1_alpha-2": "BR", "ISO_3166-1_alpha-3": "BRA", "_category": "place", "_type": "city", "continent": "South America", "country": "Brasil", "country_code": "br", "municipality": "Região Geográfica Imediata de Santa Bárbara - Ouro Preto", "region": "Região Sudeste", "state": "Minas Gerais", "state_code": "MG", "state_district": "Região Geográfica Intermediária de Belo Horizonte", "town": "Ouro Preto"}, "currency": {"decimal_mark": ",", "html_entity": "R$", "iso_code": "BRL", "iso_numeric": "986", "name": "Brazilian Real", "smallest_denomination": 5, "subunit": "Centavo", "subunit_to_unit": 100, "symbol": "R$", "symbol_first": 1, "thousands_separator": "."}, "link": "/ouro-preto-206-c.html"}, {"search": "Paraty", "geometry": {"lat": -23.2196461, "lng": -44.7154196}, "components": {"ISO_3166-1_alpha-2": "BR", "ISO_3166-1_alpha-3": "BRA", "_category": "place", "_type": "city", "continent": "South America", "country": "Brasil", "country_code": "br", "municipality": "Região Geográfica Imediata de Angra dos Reis", "postcode": "23970-000", "region": "Região Sudeste", "state": "Rio de Janeiro", "state_code": "RJ", "state_district": "Região Geográfica Intermediária do Rio de Janeiro", "town": "Paraty"}, "currency": {"decimal_mark": ",", "html_entity": "R$", "iso_code": "BRL", "iso_numeric": "986", "name": "Brazilian Real", "smallest_denomination": 5, "subunit": "Centavo", "subunit_to_unit": 100, "symbol": "R$", "symbol_first": 1, "thousands_separator": "."}, "link": "/paraty-192-c.html"}, {"search": "Península de Maraú", "geometry": {"lat": -23.806232, "lng": -46.0350045}, "components": {"ISO_3166-1_alpha-2": "BR", "ISO_3166-1_alpha-3": "BRA", "_category": "building", "_type": "building", "building": "Edifício Península de Maraú", "continent": "South America", "country": "Brasil", "country_code": "br", "county": "Região Metropolitana da Baixada Santista", "municipality": "Região Imediata de Santos", "postcode": "11260-357", "region": "Região Sudeste", "residential": "Riviera", "road": "Alameda do Remo", "state": "São Paulo", "state_code": "SP", "state_district": "Região Geográfica Intermediária de São Paulo", "suburb": "Riviera", "town": "Bertioga"}, "currency": {"decimal_mark": ",", "html_entity": "R$", "iso_code": "BRL", "iso_numeric": "986", "name": "Brazilian Real", "smallest_denomination": 5, "subunit": "Centavo", "subunit_to_unit": 100, "symbol": "R$", "symbol_first": 1, "thousands_separator": "."}, "link": "/barragrandemarau-222-c.html"}, {"search": "Pipa", "geometry": {"lat": -6.2367365, "lng": -35.0499272}, "components": {"ISO_3166-1_alpha-2": "BR", "ISO_3166-1_alpha-3": "BRA", "_category": "place", "_type": "neighbourhood", "city_district": "Pipa", "continent": "South America", "country": "Brasil", "country_code": "br", "municipality": "Região Geográfica Imediata de Canguaretama", "region": "Região Nordeste", "state": "Rio Grande do Norte", "state_code": "RN", "state_district": "Região Geográfica Intermediária de Natal", "town": "Tibau do Sul"}, "currency": {"decimal_mark": ",", "html_entity": "R$", "iso_code": "BRL", "iso_numeric": "986", "name": "Brazilian Real", "smallest_denomination": 5, "subunit": "Centavo", "subunit_to_unit": 100, "symbol": "R$", "symbol_first": 1, "thousands_separator": "."}, "link": "/pipa-rio-grande-do-norte-19-c.html"}, {"search": "Pirenópolis", "geometry": {"lat": -15.8501619, "lng": -48.957317}, "components": {"ISO_3166-1_alpha-2": "BR", "ISO_3166-1_alpha-3": "BRA", "_category": "place", "_type": "city", "continent": "South America", "country": "Brasil", "country_code": "br", "county": "Região Integrada de Desenvolvimento do Distrito Federal e Entorno", "municipality": "Região Geográfica Imediata de Anápolis", "region": "Região Centro-Oeste", "state": "Goiás", "state_code": "GO", "state_district": "Região Geográfica Intermediária de Goiânia", "town": "Pirenópolis"}, "currency": {"decimal_mark": ",", "html_entity": "R$", "iso_code": "BRL", "iso_numeric": "986", "name": "Brazilian Real", "smallest_denomination": 5, "subunit": "Centavo", "subunit_to_unit": 100, "symbol": "R$", "symbol_first": 1, "thousands_separator": "."}, "link": "/pirenopolis-234-c.html"}, {"search": "Porto Seguro", "geometry": {"lat": -16.443473, "lng": -39.064251}, "components": {"ISO_3166-1_alpha-2": "BR", "ISO_3166-1_alpha-3": "BRA", "_category": "place", "_type": "city", "city": "Porto Seguro", "continent": "South America", "country": "Brasil", "country_code": "br", "municipality": "Região Geográfica Imediata de Eunápolis - Porto Seguro", "region": "Região Nordeste", "state": "Bahia", "state_code": "BA", "state_district": "Região Geográfica Intermediária de Ilhéus-Itabuna"}, "currency": {"decimal_mark": ",", "html_entity": "R$", "iso_code": "BRL", "iso_numeric": "986", "name": "Brazilian Real", "smallest_denomination": 5, "subunit": "Centavo", "subunit_to_unit": 100, "symbol": "R$", "symbol_first": 1, "thousands_separator": "."}, "link": "/porto-seguro-52-c.html"}, {"search": "Porto de Galinhas", "geometry": {"lat": -8.5046818, "lng": -35.0049962}, "components": {"ISO_3166-1_alpha-2": "BR", "ISO_3166-1_alpha-3": "BRA", "_category": "place", "_type": "city", "continent": "South America", "country": "Brasil", "country_code": "br", "county": "Região Metropolitana do Recife", "municipality": "Ipojuca", "postcode": "55159-000", "region": "Região Nordeste", "state": "Pernambuco", "state_code": "PE", "state_district": "Região Geográfica Intermediária do Recife", "town": "Porto de Galinhas"}, "currency": {"decimal_mark": ",", "html_entity": "R$", "iso_code": "BRL", "iso_numeric": "986", "name": "Brazilian Real", "smallest_denomination": 5, "subunit": "Centavo", "subunit_to_unit": 100, "symbol": "R$", "symbol_first": 1, "thousands_separator": "."}, "link": "/porto-de-galinhas-113-c.html"}, {"search": "Recife", "geometry": {"lat": -8.0584933, "lng": -34.8848193}, "components": {"ISO_3166-1_alpha-2": "BR", "ISO_3166-1_alpha-3": "BRA", "_category": "place", "_type": "city", "city": "Recife", "continent": "South America", "country": "Brasil", "country_code": "br", "county": "Região Metropolitana do Recife", "municipality": "Região Geográfica Imediata do Recife", "region": "Região Nordeste", "state": "Pernambuco", "state_code": "PE", "state_district": "Região Geográfica Intermediária do Recife"}, "currency": {"decimal_mark": ",", "html_entity": "R$", "iso_code": "BRL", "iso_numeric": "986", "name": "Brazilian Real", "smallest_denomination": 5, "subunit": "Centavo", "subunit_to_unit": 100, "symbol": "R$", "symbol_first": 1, "thousands_separator": "."}, "link": "/recife-108-c.html"}, {"search": "Rio de Janeiro", "geometry": {"lat": -22.9110137, "lng": -43.2093727}, "components": {"ISO_3166-1_alpha-2": "BR", "ISO_3166-1_alpha-3": "BRA", "_category": "place", "_type": "city", "city": "Rio de Janeiro", "continent": "South America", "country": "Brasil", "country_code": "br", "county": "Região Metropolitana do Rio de Janeiro", "municipality": "Região Geográfica Imediata do Rio de Janeiro", "region": "Região Sudeste", "state": "Rio de Janeiro", "state_code": "RJ", "state_district": "Região Geográfica Intermediária do Rio de Janeiro"}, "currency": {"decimal_mark": ",", "html_entity": "R$", "iso_code": "BRL", "iso_numeric": "986", "name": "Brazilian Real", "smallest_denomination": 5, "subunit": "Centavo", "subunit_to_unit": 100, "symbol": "R$", "symbol_first": 1, "thousands_separator": "."}, "link": "/rio-de-janeiro-4-c.html"}, {"search": "Salvador", "geometry": {"lat": 13.8000382, "lng": -88.9140683}, "components": {"ISO_3166-1_alpha-2": "SV", "ISO_3166-1_alpha-3": "SLV", "_category": "place", "_type": "country", "continent": "North America", "country": "El Salvador", "country_code": "sv"}, "currency": {"alternate_symbols": ["US$"], "decimal_mark": ".", "disambiguate_symbol": "US$", "html_entity": "$", "iso_code": "USD", "iso_numeric": "840", "name": "United States Dollar", "smallest_denomination": 1, "subunit": "Cent", "subunit_to_unit": 100, "symbol": "$", "symbol_first": 1, "thousands_separator": ","}, "link": "/salvador-16-c.html"}, {"search": "São Paulo", "geometry": {"lat": -23.5506507, "lng": -46.6333824}, "components": {"ISO_3166-1_alpha-2": "BR", "ISO_3166-1_alpha-3": "BRA", "_category": "place", "_type": "city", "city": "São Paulo", "continent": "South America", "country": "Brasil", "country_code": "br", "county": "Região Metropolitana de São Paulo", "municipality": "Região Imediata de São Paulo", "region": "Região Sudeste", "state": "São Paulo", "state_code": "SP", "state_district": "Região Geográfica Intermediária de São Paulo"}, "currency": {"decimal_mark": ",", "html_entity": "R$", "iso_code": "BRL", "iso_numeric": "986", "name": "Brazilian Real", "smallest_denomination": 5, "subunit": "Centavo", "subunit_to_unit": 100, "symbol": "R$", "symbol_first": 1, "thousands_separator": "."}, "link": "/sao-paulo-173-c.html"}, {"search": "São Sebastião", "geometry": {"lat": -23.8027866, "lng": -45.4070527}, "components": {"ISO_3166-1_alpha-2": "BR", "ISO_3166-1_alpha-3": "BRA", "_category": "place", "_type": "city", "continent": "South America", "country": "Brasil", "country_code": "br", "county": "Região Metropolitana do Vale do Paraíba e Litoral Norte", "municipality": "Região Imediata de Caraguatatuba-Ubatuba-São Sebastião", "region": "Região Sudeste", "state": "São Paulo", "state_code": "SP", "state_district": "Região Geográfica Intermediária de São José dos Campos", "town": "São Sebastião"}, "currency": {"decimal_mark": ",", "html_entity": "R$", "iso_code": "BRL", "iso_numeric": "986", "name": "Brazilian Real", "smallest_denomination": 5, "subunit": "Centavo", "subunit_to_unit": 100, "symbol": "R$", "symbol_first": 1, "thousands_separator": "."}, "link": "/saosebastiao-239-c.html"}, {"search": "Tiradentes", "geometry": {"lat": -21.1104688, "lng": -44.1742937}, "components": {"ISO_3166-1_alpha-2": "BR", "ISO_3166-1_alpha-3": "BRA", "_category": "place", "_type": "village", "continent": "South America", "country": "Brasil", "country_code": "br", "municipality": "Região Geográfica Imediata de São João del Rei", "region": "Região Sudeste", "state": "Minas Gerais", "state_code": "MG", "village": "Tiradentes"}, "currency": {"decimal_mark": ",", "html_entity": "R$", "iso_code": "BRL", "iso_numeric": "986", "name": "Brazilian Real", "smallest_denomination": 5, "subunit": "Centavo", "subunit_to_unit": 100, "symbol": "R$", "symbol_first": 1, "thousands_separator": "."}, "link": "/tiradentes-205-c.html"}, {"search": "Trancoso", "geometry": {"lat": 22.7568166, "lng": -102.3217132}, "components": {"ISO_3166-1_alpha-2": "MX", "ISO_3166-1_alpha-3": "MEX", "_category": "place", "_type": "county", "continent": "North America", "country": "México", "country_code": "mx", "county": "Trancoso", "state": "Zacatecas", "state_code": "ZAC"}, "currency": {"alternate_symbols": ["MEX$"], "decimal_mark": ".", "disambiguate_symbol": "MEX$", "html_entity": "$", "iso_code": "MXN", "iso_numeric": "484", "name": "Mexican Peso", "smallest_denomination": 5, "subunit": "Centavo", "subunit_to_unit": 100, "symbol": "$", "symbol_first": 1, "thousands_separator": ","}, "link": "/trancoso-224-c.html"}, {"search": "Ubatuba", "geometry": {"lat": -23.433162, "lng": -45.083415}, "components": {"ISO_3166-1_alpha-2": "BR", "ISO_3166-1_alpha-3": "BRA", "_category": "place", "_type": "city", "continent": "South America", "country": "Brasil", "country_code": "br", "county": "Região Metropolitana do Vale do Paraíba e Litoral Norte", "municipality": "Região Imediata de Caraguatatuba-Ubatuba-São Sebastião", "postcode": "11680-000", "region": "Região Sudeste", "state": "São Paulo", "state_code": "SP", "state_district": "Região Geográfica Intermediária de São José dos Campos", "town": "Ubatuba"}, "currency": {"decimal_mark": ",", "html_entity": "R$", "iso_code": "BRL", "iso_numeric": "986", "name": "Brazilian Real", "smallest_denomination": 5, "subunit": "Centavo", "subunit_to_unit": 100, "symbol": "R$", "symbol_first": 1, "thousands_separator": "."}, "link": "/ubatuba-230-c.html"}, {"search": "Vitória", "geometry": {"lat": -20.3200917, "lng": -40.3376682}, "components": {"ISO_3166-1_alpha-2": "BR", "ISO_3166-1_alpha-3": "BRA", "_category": "place", "_type": "city", "city": "Vitória", "continent": "South America", "country": "Brasil", "country_code": "br", "municipality": "Região Geográfica Imediata de Vitória", "postcode": "29010-906", "region": "Região Sudeste", "state": "Espírito Santo", "state_code": "ES", "state_district": "Região Geográfica Intermediária de Vitória"}, "currency": {"decimal_mark": ",", "html_entity": "R$", "iso_code": "BRL", "iso_numeric": "986", "name": "Brazilian Real", "smallest_denomination": 5, "subunit": "Centavo", "subunit_to_unit": 100, "symbol": "R$", "symbol_first": 1, "thousands_separator": "."}, "link": "/vitoria-62-c.html"}, {"search": "Aruba", "geometry": {"lat": 12.5175662, "lng": -69.9818642}, "components": {"ISO_3166-1_alpha-2": "AW", "ISO_3166-1_alpha-3": "ABW", "_category": "road", "_type": "road", "continent": "North America", "country": "Países Baixos", "country_code": "nl", "place": "Aruba"}, "currency": {"alternate_symbols": ["Afl"], "decimal_mark": ".", "format": "%n %u", "html_entity": "&#x0192;", "iso_code": "AWG", "iso_numeric": "533", "name": "Aruban Florin", "smallest_denomination": 5, "subunit": "Cent", "subunit_to_unit": 100, "symbol": "ƒ", "symbol_first": 0, "thousands_separator": ","}, "link": "/aruba-83-c.html"}, {"search": "Bocas del Toro", "geometry": {"lat": 9.3040623, "lng": -82.1284815}, "components": {"ISO_3166-1_alpha-2": "PA", "ISO_3166-1_alpha-3": "PAN", "_category": "place", "_type": "county", "continent": "North America", "country": "Panamá", "country_code": "pa", "county": "Distrito Bocas del Toro", "state": "Bocas del Toro"}, "currency": {"alternate_symbols": ["US$"], "decimal_mark": ".", "disambiguate_symbol": "US$", "html_entity": "$", "iso_code": "USD", "iso_numeric": "840", "name": "United States Dollar", "smallest_denomination": 1, "subunit": "Cent", "subunit_to_unit": 100, "symbol": "$", "symbol_first": 1, "thousands_separator": ","}, "link": "/bocas-del-toro-171-c.html"}, {"search": "Cancún", "geometry": {"lat": 21.1617854, "lng": -86.8510468}, "components": {"ISO_3166-1_alpha-2": "MX", "ISO_3166-1_alpha-3": "MEX", "_category": "place", "_type": "city", "city": "Cancún", "continent": "North America", "country": "México", "country_code": "mx", "county": "Benito Juárez", "state": "Quintana Roo", "state_code": "ROO"}, "currency": {"alternate_symbols": ["MEX$"], "decimal_mark": ".", "disambiguate_symbol": "MEX$", "html_entity": "$", "iso_code": "MXN", "iso_numeric": "484", "name": "Mexican Peso", "smallest_denomination": 5, "subunit": "Centavo", "subunit_to_unit": 100, "symbol": "$", "symbol_first": 1, "thousands_separator": ","}, "link": "/cancun-78-c.html"}, {"search": "Cartagena", "geometry": {"lat": 37.6019353, "lng": -0.9841152}, "components": {"ISO_3166-1_alpha-2": "ES", "ISO_3166-1_alpha-3": "ESP", "_category": "place", "_type": "city", "city": "Cartagena", "continent": "Europe", "country": "Espanha", "country_code": "es", "county": "Região de Múrcia", "municipality": "Campo de Cartagena y Mar Menor", "political_union": "European Union", "state": "Região de Múrcia"}, "currency": {"alternate_symbols": [], "decimal_mark": ",", "html_entity": "&#x20AC;", "iso_code": "EUR", "iso_numeric": "978", "name": "Euro", "smallest_denomination": 1, "subunit": "Cent", "subunit_to_unit": 100, "symbol": "€", "symbol_first": 0, "thousands_separator": "."}, "link": "/cartagena-120-c.html"}, {"search": "Cidade do México", "geometry": {"lat": 19.4326296, "lng": -99.1331785}, "components": {"ISO_3166-1_alpha-2": "MX", "ISO_3166-1_alpha-3": "MEX", "_category": "place", "_type": "city", "city": "Cidade do México", "continent": "North America", "country": "México", "country_code": "mx"}, "currency": {"alternate_symbols": ["MEX$"], "decimal_mark": ".", "disambiguate_symbol": "MEX$", "html_entity": "$", "iso_code": "MXN", "iso_numeric": "484", "name": "Mexican Peso", "smallest_denomination": 5, "subunit": "Centavo", "subunit_to_unit": 100, "symbol": "$", "symbol_first": 1, "thousands_separator": ","}, "link": "/cidade-do-mexico-197-c.html"}, {"search": "Cidade do Panamá", "geometry": {"lat": 8.9714493, "lng": -79.5341802}, "components": {"ISO_3166-1_alpha-2": "PA", "ISO_3166-1_alpha-3": "PAN", "_category": "place", "_type": "city", "city": "Cidade do Panamá", "continent": "South America", "country": "Panamá", "country_code": "pa", "county": "Distrito Panamá", "state": "Panamá"}, "currency": {"alternate_symbols": ["US$"], "decimal_mark": ".", "disambiguate_symbol": "US$", "html_entity": "$", "iso_code": "USD", "iso_numeric": "840", "name": "United States Dollar", "smallest_denomination": 1, "subunit": "Cent", "subunit_to_unit": 100, "symbol": "$", "symbol_first": 1, "thousands_separator": ","}, "link": "/cidade-panama-123-c.html"}, {"search": "Curaçao", "geometry": {"lat": 12.2133943, "lng": -69.04085}, "components": {"ISO_3166-1_alpha-2": "CW", "ISO_3166-1_alpha-3": "CUW", "_category": "road", "_type": "road", "continent": "North America", "country": "Países Baixos", "country_code": "nl", "place": "Curaçau"}, "currency": {"alternate_symbols": ["NAƒ", "NAf", "f"], "decimal_mark": ",", "html_entity": "&#x0192;", "iso_code": "ANG", "iso_numeric": "532", "name": "Netherlands Antillean Gulden", "smallest_denomination": 1, "subunit": "Cent", "subunit_to_unit": 100, "symbol": "ƒ", "symbol_first": 1, "thousands_separator": "."}, "link": "/curacao-82-c.html"}, {"search": "Havana", "geometry": {"lat": 23.135305, "lng": -82.3589631}, "components": {"ISO_3166-1_alpha-2": "CU", "ISO_3166-1_alpha-3": "CUB", "_category": "place", "_type": "city", "city": "Havana", "continent": "North America", "country": "Cuba", "country_code": "cu"}, "currency": {"alternate_symbols": ["CUC$"], "decimal_mark": ".", "disambiguate_symbol": "CUC$", "format": "%n %u", "html_entity": "", "iso_code": "CUC", "iso_numeric": "931", "name": "Cuban Convertible Peso", "smallest_denomination": 1, "subunit": "Centavo", "subunit_to_unit": 100, "symbol": "$", "symbol_first": 0, "thousands_separator": ","}, "link": "/havana-81-c.html"}, {"search": "Isla Contadora", "geometry": {"lat": 8.6268728, "lng": -79.0369891}, "components": {"ISO_3166-1_alpha-2": "PA", "ISO_3166-1_alpha-3": "PAN", "_category": "road", "_type": "road", "continent": "South America", "country": "Panamá", "country_code": "pa", "county": "Distrito Balboa", "place": "Isla Contadora", "state": "Panamá", "village": "Saboga"}, "currency": {"alternate_symbols": ["US$"], "decimal_mark": ".", "disambiguate_symbol": "US$", "html_entity": "$", "iso_code": "USD", "iso_numeric": "840", "name": "United States Dollar", "smallest_denomination": 1, "subunit": "Cent", "subunit_to_unit": 100, "symbol": "$", "symbol_first": 1, "thousands_separator": ","}, "link": "/isla-contadora-169-c.html"}, {"search": "Los Roques", "geometry": {"lat": 28.2200849, "lng": -16.4143282}, "components": {"ISO_3166-1_alpha-2": "ES", "ISO_3166-1_alpha-3": "ESP", "_category": "place", "_type": "hamlet", "archipelago": "Canárias", "continent": "Europe", "country": "Espanha", "country_code": "es", "county": "Santa Cruz de Tenerife", "county_code": "TF", "hamlet": "Los Roques", "political_union": "European Union", "postcode": "38570", "village": "Fasnia"}, "currency": {"alternate_symbols": [], "decimal_mark": ",", "html_entity": "&#x20AC;", "iso_code": "EUR", "iso_numeric": "978", "name": "Euro", "smallest_denomination": 1, "subunit": "Cent", "subunit_to_unit": 100, "symbol": "€", "symbol_first": 0, "thousands_separator": "."}, "link": "/los-roques-200-c.html"}, {"search": "Playa del Carmen", "geometry": {"lat": 20.6308643, "lng": -87.0779503}, "components": {"ISO_3166-1_alpha-2": "MX", "ISO_3166-1_alpha-3": "MEX", "_category": "place", "_type": "city", "city": "Playa del Carmen", "continent": "North America", "country": "México", "country_code": "mx", "municipality": "Solidaridad", "state": "Quintana Roo", "state_code": "ROO"}, "currency": {"alternate_symbols": ["MEX$"], "decimal_mark": ".", "disambiguate_symbol": "MEX$", "html_entity": "$", "iso_code": "MXN", "iso_numeric": "484", "name": "Mexican Peso", "smallest_denomination": 5, "subunit": "Centavo", "subunit_to_unit": 100, "symbol": "$", "symbol_first": 1, "thousands_separator": ","}, "link": "/playa-del-carmen-80-c.html"}, {"search": "Providência e Santa Catalina", "geometry": {"lat": 13.3879966, "lng": -81.3757859}, "components": {"ISO_3166-1_alpha-2": "CO", "ISO_3166-1_alpha-3": "COL", "_category": "road", "_type": "road", "continent": "North America", "country": "Colômbia", "country_code": "co", "hamlet": "Santa Isabel", "place": "Santa Catalina", "state": "Archipiélago de San Andrés, Providencia y Santa Catalina", "village": "Freetown"}, "currency": {"alternate_symbols": ["COL$"], "decimal_mark": ",", "disambiguate_symbol": "COL$", "html_entity": "&#36;", "iso_code": "COP", "iso_numeric": "170", "name": "Colombian Peso", "smallest_denomination": 20, "subunit": "Centavo", "subunit_to_unit": 100, "symbol": "$", "symbol_first": 1, "thousands_separator": "."}, "link": "/providencia-santa-catalina-118-c.html"}, {"search": "Punta Cana", "geometry": {"lat": 18.556551, "lng": -68.3691611}, "components": {"ISO_3166-1_alpha-2": "DO", "ISO_3166-1_alpha-3": "DOM", "_category": "place", "_type": "village", "city": "Higüey", "continent": "North America", "country": "República Dominicana", "country_code": "do", "postcode": "23300", "state": "La Altagracia", "village": "Punta Cana"}, "currency": {"alternate_symbols": ["RD$"], "decimal_mark": ".", "disambiguate_symbol": "RD$", "html_entity": "&#x20B1;", "iso_code": "DOP", "iso_numeric": "214", "name": "Dominican Peso", "smallest_denomination": 100, "subunit": "Centavo", "subunit_to_unit": 100, "symbol": "$", "symbol_first": 1, "thousands_separator": ","}, "link": "/punta-cana-8-c.html"}, {"search": "Riviera Nayarit", "geometry": {"lat": 21.5150944, "lng": -104.8664742}, "components": {"ISO_3166-1_alpha-2": "MX", "ISO_3166-1_alpha-3": "MEX", "_category": "road", "_type": "road", "city": "Tepic", "continent": "North America", "country": "México", "country_code": "mx", "county": "Municipio de Tepic", "road": "Riviera Francesa", "road_type": "residential", "state": "Nayarit", "state_code": "NAY"}, "currency": {"alternate_symbols": ["MEX$"], "decimal_mark": ".", "disambiguate_symbol": "MEX$", "html_entity": "$", "iso_code": "MXN", "iso_numeric": "484", "name": "Mexican Peso", "smallest_denomination": 5, "subunit": "Centavo", "subunit_to_unit": 100, "symbol": "$", "symbol_first": 1, "thousands_separator": ","}, "link": "/riviera-nayarit-135-c.html"}, {"search": "San Andrés", "geometry": {"lat": 6.8100668, "lng": -72.8506351}, "components": {"ISO_3166-1_alpha-2": "CO", "ISO_3166-1_alpha-3": "COL", "_category": "place", "_type": "city", "continent": "South America", "country": "Colômbia", "country_code": "co", "county": "San Andrés", "region": "Región Andina", "state": "Santander", "state_code": "SAN", "state_district": "García Rovira", "town": "San Andrés"}, "currency": {"alternate_symbols": ["COL$"], "decimal_mark": ",", "disambiguate_symbol": "COL$", "html_entity": "&#36;", "iso_code": "COP", "iso_numeric": "170", "name": "Colombian Peso", "smallest_denomination": 20, "subunit": "Centavo", "subunit_to_unit": 100, "symbol": "$", "symbol_first": 1, "thousands_separator": "."}, "link": "/san-andres-115-c.html"}, {"search": "San Blas", "geometry": {"lat": 21.5381431, "lng": -105.1838784}, "components": {"ISO_3166-1_alpha-2": "MX", "ISO_3166-1_alpha-3": "MEX", "_category": "place", "_type": "county", "continent": "North America", "country": "México", "country_code": "mx", "county": "San Blas", "state": "Nayarit", "state_code": "NAY"}, "currency": {"alternate_symbols": ["MEX$"], "decimal_mark": ".", "disambiguate_symbol": "MEX$", "html_entity": "$", "iso_code": "MXN", "iso_numeric": "484", "name": "Mexican Peso", "smallest_denomination": 5, "subunit": "Centavo", "subunit_to_unit": 100, "symbol": "$", "symbol_first": 1, "thousands_separator": ","}, "link": "/san-blas-168-c.html"}, {"search": "St. Barth", "geometry": {"lat": 17.9036287, "lng": -62.8115688}, "components": {"ISO_3166-1_alpha-2": "BL", "ISO_3166-1_alpha-3": "BLM", "_category": "place", "_type": "city", "continent": "North America", "country": "França", "country_code": "fr", "postcode": "97133", "region": "São Bartolomeu", "town": "São Bartolomeu"}, "currency": {"alternate_symbols": [], "decimal_mark": ",", "html_entity": "&#x20AC;", "iso_code": "EUR", "iso_numeric": "978", "name": "Euro", "smallest_denomination": 1, "subunit": "Cent", "subunit_to_unit": 100, "symbol": "€", "symbol_first": 0, "thousands_separator": "."}, "link": "/st-barth-122-c.html"}, {"search": "St. Maarten e St. Martin", "geometry": {"lat": 18.0648183, "lng": -63.0491711}, "components": {"ISO_3166-1_alpha-2": "MF", "ISO_3166-1_alpha-3": "MAF", "_category": "road", "_type": "road", "continent": "North America", "country": "França", "country_code": "fr", "place": "Saint-Martin / Sint Maarten", "postcode": "97150", "state": "São Martinho (França)", "town": "São Martinho (França)"}, "currency": {"alternate_symbols": [], "decimal_mark": ",", "html_entity": "&#x20AC;", "iso_code": "EUR", "iso_numeric": "978", "name": "Euro", "smallest_denomination": 1, "subunit": "Cent", "subunit_to_unit": 100, "symbol": "€", "symbol_first": 0, "thousands_separator": "."}, "link": "/st-maarten-st-martin-121-c.html"}, {"search": "Bariloche", "geometry": {"lat": -41.1334421, "lng": -71.3098425}, "components": {"ISO_3166-1_alpha-2": "AR", "ISO_3166-1_alpha-3": "ARG", "_category": "place", "_type": "city", "city": "Bariloche", "continent": "South America", "country": "Argentina", "country_code": "ar", "municipality": "Municipio de San Carlos de Bariloche", "postcode": "8400", "state": "Río Negro", "state_code": "R", "state_district": "Departamento Bariloche"}, "currency": {"alternate_symbols": ["$m/n", "m$n"], "decimal_mark": ",", "disambiguate_symbol": "$m/n", "html_entity": "$", "iso_code": "ARS", "iso_numeric": "032", "name": "Argentine Peso", "smallest_denomination": 1, "subunit": "Centavo", "subunit_to_unit": 100, "symbol": "$", "symbol_first": 1, "thousands_separator": "."}, "link": "/bariloche-136-c.html"}, {"search": "Buenos Aires", "geometry": {"lat": -34.6075682, "lng": -58.4370894}, "components": {"ISO_3166-1_alpha-2": "AR", "ISO_3166-1_alpha-3": "ARG", "_category": "place", "_type": "city", "city": "Buenos Aires", "continent": "South America", "country": "Argentina", "country_code": "ar", "state": "Ciudad Autónoma de Buenos Aires", "state_code": "C", "state_district": "Comuna 6"}, "currency": {"alternate_symbols": ["$m/n", "m$n"], "decimal_mark": ",", "disambiguate_symbol": "$m/n", "html_entity": "$", "iso_code": "ARS", "iso_numeric": "032", "name": "Argentine Peso", "smallest_denomination": 1, "subunit": "Centavo", "subunit_to_unit": 100, "symbol": "$", "symbol_first": 1, "thousands_separator": "."}, "link": "/buenos-aires-86-c.html"}, {"search": "Colônia do Sacramento", "geometry": {"lat": -34.4698592, "lng": -57.8433679}, "components": {"ISO_3166-1_alpha-2": "UY", "ISO_3166-1_alpha-3": "URY", "_category": "place", "_type": "city", "city": "Colônia do Sacramento", "continent": "South America", "country": "Uruguai", "country_code": "uy", "postcode": "70000", "state": "Colonia", "state_code": "CO"}, "currency": {"alternate_symbols": ["$U"], "decimal_mark": ",", "html_entity": "$U", "iso_code": "UYU", "iso_numeric": "858", "name": "Uruguayan Peso", "smallest_denomination": 100, "subunit": "Centésimo", "subunit_to_unit": 100, "symbol": "$U", "symbol_first": 1, "thousands_separator": "."}, "link": "/colonia-do-sacramento-96-c.html"}, {"search": "Cusco", "geometry": {"lat": -13.5170887, "lng": -71.9785356}, "components": {"ISO_3166-1_alpha-2": "PE", "ISO_3166-1_alpha-3": "PER", "_category": "place", "_type": "city", "city": "Cusco", "continent": "South America", "country": "Peru", "country_code": "pe", "region": "Cusco", "state": "Cusco"}, "currency": {"alternate_symbols": [], "decimal_mark": ".", "html_entity": "S/", "iso_code": "PEN", "iso_numeric": "604", "name": "Peruvian Sol", "smallest_denomination": 1, "subunit": "Céntimo", "subunit_to_unit": 100, "symbol": "S/", "symbol_first": 1, "thousands_separator": ","}, "link": "/cusco-102-c.html"}, {"search": "Deserto do Atacama", "geometry": {"lat": -24.5563029, "lng": -69.4226479}, "components": {"ISO_3166-1_alpha-2": "CL", "ISO_3166-1_alpha-3": "CHL", "_category": "natural/water", "_type": "desert", "city": "Antofagasta", "continent": "South America", "country": "Chile", "country_code": "cl", "county": "Provincia de Antofagasta", "desert": "Deserto de Atacama", "state": "Região de Antofagasta"}, "currency": {"alternate_symbols": [], "decimal_mark": ",", "disambiguate_symbol": "CLP", "html_entity": "&#36;", "iso_code": "CLP", "iso_numeric": "152", "name": "Chilean Peso", "smallest_denomination": 1, "subunit": "Peso", "subunit_to_unit": 1, "symbol": "$", "symbol_first": 1, "thousands_separator": "."}, "link": "/deserto-atacama-164-c.html"}, {"search": "Ilha de Páscoa", "geometry": {"lat": -27.1259451, "lng": -109.3496335}, "components": {"ISO_3166-1_alpha-2": "CL", "ISO_3166-1_alpha-3": "CHL", "_category": "government", "_type": "administrative", "administrative": "Ilha de Páscoa", "continent": "Oceania", "country": "Chile", "country_code": "cl", "county": "Provincia de Isla de Pascua", "state": "Região de Valparaiso"}, "currency": {"alternate_symbols": [], "decimal_mark": ",", "disambiguate_symbol": "CLP", "html_entity": "&#36;", "iso_code": "CLP", "iso_numeric": "152", "name": "Chilean Peso", "smallest_denomination": 1, "subunit": "Peso", "subunit_to_unit": 1, "symbol": "$", "symbol_first": 1, "thousands_separator": "."}, "link": "/ilha-de-pascoa-114-c.html"}, {"search": "Lima", "geometry": {"lat": -12.0621065, "lng": -77.0365256}, "components": {"ISO_3166-1_alpha-2": "PE", "ISO_3166-1_alpha-3": "PER", "_category": "place", "_type": "city", "city": "Lima", "continent": "South America", "country": "Peru", "country_code": "pe", "region": "Lima", "state": "Lima", "state_code": "LIM"}, "currency": {"alternate_symbols": [], "decimal_mark": ".", "html_entity": "S/", "iso_code": "PEN", "iso_numeric": "604", "name": "Peruvian Sol", "smallest_denomination": 1, "subunit": "Céntimo", "subunit_to_unit": 100, "symbol": "S/", "symbol_first": 1, "thousands_separator": ","}, "link": "/lima-101-c.html"}, {"search": "Machu Picchu", "geometry": {"lat": -13.164422, "lng": -72.5450851}, "components": {"ISO_3166-1_alpha-2": "PE", "ISO_3166-1_alpha-3": "PER", "_category": "travel/tourism", "_type": "attraction", "attraction": "Ciudadela de Machu Picchu", "city": "Machupicchu", "continent": "South America", "country": "Peru", "country_code": "pe", "hamlet": "San Miguel", "postcode": "08680", "region": "Urubamba", "road": "Camino a Puente Inka", "state": "Cusco", "village": "Intihuatana"}, "currency": {"alternate_symbols": [], "decimal_mark": ".", "html_entity": "S/", "iso_code": "PEN", "iso_numeric": "604", "name": "Peruvian Sol", "smallest_denomination": 1, "subunit": "Céntimo", "subunit_to_unit": 100, "symbol": "S/", "symbol_first": 1, "thousands_separator": ","}, "link": "/machu-picchu-61-c.html"}, {"search": "Mendoza", "geometry": {"lat": -34.787093, "lng": -68.4381868}, "components": {"ISO_3166-1_alpha-2": "AR", "ISO_3166-1_alpha-3": "ARG", "_category": "place", "_type": "state", "continent": "South America", "country": "Argentina", "country_code": "ar", "state": "Mendoza", "state_code": "M"}, "currency": {"alternate_symbols": ["$m/n", "m$n"], "decimal_mark": ",", "disambiguate_symbol": "$m/n", "html_entity": "$", "iso_code": "ARS", "iso_numeric": "032", "name": "Argentine Peso", "smallest_denomination": 1, "subunit": "Centavo", "subunit_to_unit": 100, "symbol": "$", "symbol_first": 1, "thousands_separator": "."}, "link": "/mendoza-103-c.html"}, {"search": "Montevidéu", "geometry": {"lat": -34.9058916, "lng": -56.1913095}, "components": {"ISO_3166-1_alpha-2": "UY", "ISO_3166-1_alpha-3": "URY", "_category": "place", "_type": "city", "city": "Montevidéu", "continent": "South America", "country": "Uruguai", "country_code": "uy", "state": "Montevideo", "state_code": "MO"}, "currency": {"alternate_symbols": ["$U"], "decimal_mark": ",", "html_entity": "$U", "iso_code": "UYU", "iso_numeric": "858", "name": "Uruguayan Peso", "smallest_denomination": 100, "subunit": "Centésimo", "subunit_to_unit": 100, "symbol": "$U", "symbol_first": 1, "thousands_separator": "."}, "link": "/montevideu-97-c.html"}, {"search": "Pucón", "geometry": {"lat": -39.2731173, "lng": -71.9777605}, "components": {"ISO_3166-1_alpha-2": "CL", "ISO_3166-1_alpha-3": "CHL", "_category": "place", "_type": "city", "continent": "South America", "country": "Chile", "country_code": "cl", "county": "Provincia de Cautín", "state": "Región de la Araucanía", "town": "Pucón"}, "currency": {"alternate_symbols": [], "decimal_mark": ",", "disambiguate_symbol": "CLP", "html_entity": "&#36;", "iso_code": "CLP", "iso_numeric": "152", "name": "Chilean Peso", "smallest_denomination": 1, "subunit": "Peso", "subunit_to_unit": 1, "symbol": "$", "symbol_first": 1, "thousands_separator": "."}, "link": "/pucon-chile-162-c.html"}, {"search": "Puerto Varas", "geometry": {"lat": -41.317802, "lng": -72.9829073}, "components": {"ISO_3166-1_alpha-2": "CL", "ISO_3166-1_alpha-3": "CHL", "_category": "place", "_type": "city", "continent": "South America", "country": "Chile", "country_code": "cl", "county": "Provincia de Llanquihue", "state": "Região de Los Lagos", "town": "Puerto Varas"}, "currency": {"alternate_symbols": [], "decimal_mark": ",", "disambiguate_symbol": "CLP", "html_entity": "&#36;", "iso_code": "CLP", "iso_numeric": "152", "name": "Chilean Peso", "smallest_denomination": 1, "subunit": "Peso", "subunit_to_unit": 1, "symbol": "$", "symbol_first": 1, "thousands_separator": "."}, "link": "/puerto-varas-139-c.html"}, {"search": "Punta del Este", "geometry": {"lat": -34.9632342, "lng": -54.9439981}, "components": {"ISO_3166-1_alpha-2": "UY", "ISO_3166-1_alpha-3": "URY", "_category": "place", "_type": "city", "continent": "South America", "country": "Uruguai", "country_code": "uy", "postcode": "20100", "state": "Maldonado", "state_code": "MA", "town": "Punta Del Este"}, "currency": {"alternate_symbols": ["$U"], "decimal_mark": ",", "html_entity": "$U", "iso_code": "UYU", "iso_numeric": "858", "name": "Uruguayan Peso", "smallest_denomination": 100, "subunit": "Centésimo", "subunit_to_unit": 100, "symbol": "$U", "symbol_first": 1, "thousands_separator": "."}, "link": "/punta-del-este-106-c.html"}, {"search": "Salar de Uyuni", "geometry": {"lat": -20.2030284, "lng": -67.5164999}, "components": {"ISO_3166-1_alpha-2": "BO", "ISO_3166-1_alpha-3": "BOL", "_category": "travel/tourism", "_type": "attraction", "attraction": "Salar de Uyuni", "city": "Municipio Colcha K", "continent": "South America", "country": "Bolívia", "country_code": "bo", "county": "Provincia Nor Lípez", "state": "Potosí", "state_code": "P"}, "currency": {"alternate_symbols": ["Bs"], "decimal_mark": ".", "html_entity": "", "iso_code": "BOB", "iso_numeric": "068", "name": "Bolivian Boliviano", "smallest_denomination": 10, "subunit": "Centavo", "subunit_to_unit": 100, "symbol": "Bs.", "symbol_first": 1, "thousands_separator": ","}, "link": "/salar-uyuni-165-c.html"}, {"search": "Santiago", "geometry": {"lat": 9.8694792, "lng": -83.7980749}, "components": {"ISO_3166-1_alpha-2": "CR", "ISO_3166-1_alpha-3": "CRI", "_category": "place", "_type": "village", "continent": "North America", "country": "Costa Rica", "country_code": "cr", "county": "Cantón Paraíso", "postcode": "30202", "province": "Cartago", "state": "Cartago", "state_code": "C", "village": "Santiago"}, "currency": {"alternate_symbols": ["¢"], "decimal_mark": ",", "html_entity": "&#x20A1;", "iso_code": "CRC", "iso_numeric": "188", "name": "Costa Rican Colón", "smallest_denomination": 500, "subunit": "Céntimo", "subunit_to_unit": 100, "symbol": "₡", "symbol_first": 1, "thousands_separator": "."}, "link": "/santiago-56-c.html"}, {"search": "Torres del Paine", "geometry": {"lat": -51.0827249, "lng": -72.9610501}, "components": {"ISO_3166-1_alpha-2": "CL", "ISO_3166-1_alpha-3": "CHL", "_category": "place", "_type": "city", "city": "Torres del Paine", "continent": "South America", "country": "Chile", "country_code": "cl", "county": "Provincia de Última Esperanza", "postcode": "617 0000", "state": "Magalhães e Antártica Chilena"}, "currency": {"alternate_symbols": [], "decimal_mark": ",", "disambiguate_symbol": "CLP", "html_entity": "&#36;", "iso_code": "CLP", "iso_numeric": "152", "name": "Chilean Peso", "smallest_denomination": 1, "subunit": "Peso", "subunit_to_unit": 1, "symbol": "$", "symbol_first": 1, "thousands_separator": "."}, "link": "/patagonia-76-c.html"}, {"search": "Ushuaia", "geometry": {"lat": -54.8061159, "lng": -68.3184973}, "components": {"ISO_3166-1_alpha-2": "AR", "ISO_3166-1_alpha-3": "ARG", "_category": "place", "_type": "neighbourhood", "city": "Municipio de Ushuaia", "city_district": "Ushuaia", "continent": "South America", "country": "Argentina", "country_code": "ar", "state": "Terra do Fogo", "state_district": "Terra do Fogo"}, "currency": {"alternate_symbols": ["$m/n", "m$n"], "decimal_mark": ",", "disambiguate_symbol": "$m/n", "html_entity": "$", "iso_code": "ARS", "iso_numeric": "032", "name": "Argentine Peso", "smallest_denomination": 1, "subunit": "Centavo", "subunit_to_unit": 100, "symbol": "$", "symbol_first": 1, "thousands_separator": "."}, "link": "/ushuaia-112-c.html"}, {"search": "Valle Nevado", "geometry": {"lat": -33.352964, "lng": -70.2486776}, "components": {"ISO_3166-1_alpha-2": "CL", "ISO_3166-1_alpha-3": "CHL", "_category": "outdoors/recreation", "_type": "leisure", "city": "Lo Barnechea", "continent": "South America", "country": "Chile", "country_code": "cl", "county": "Provincia de Santiago", "hamlet": "Valle Nevado", "leisure": "Valle Nevado", "road": "Camino a Valle Nevado", "state": "Região Metropolitana de Santiago"}, "currency": {"alternate_symbols": [], "decimal_mark": ",", "disambiguate_symbol": "CLP", "html_entity": "&#36;", "iso_code": "CLP", "iso_numeric": "152", "name": "Chilean Peso", "smallest_denomination": 1, "subunit": "Peso", "subunit_to_unit": 1, "symbol": "$", "symbol_first": 1, "thousands_separator": "."}, "link": "/valle-nevado-188-c.html"}, {"search": "Banff", "geometry": {"lat": 51.1777781, "lng": -115.5682504}, "components": {"ISO_3166-1_alpha-2": "CA", "ISO_3166-1_alpha-3": "CAN", "_category": "place", "_type": "city", "continent": "North America", "country": "Canadá", "country_code": "ca", "state": "Alberta", "state_code": "AB", "town": "Banff"}, "currency": {"alternate_symbols": ["C$", "CAD$"], "decimal_mark": ".", "disambiguate_symbol": "C$", "html_entity": "$", "iso_code": "CAD", "iso_numeric": "124", "name": "Canadian Dollar", "smallest_denomination": 5, "subunit": "Cent", "subunit_to_unit": 100, "symbol": "$", "symbol_first": 1, "thousands_separator": ","}, "link": "/banff-rochosas-canada-194-c.html"}, {"search": "Boston", "geometry": {"lat": 42.3602534, "lng": -71.0582912}, "components": {"ISO_3166-1_alpha-2": "US", "ISO_3166-1_alpha-3": "USA", "_category": "place", "_type": "city", "city": "Boston", "continent": "North America", "country": "Estados Unidos da América", "country_code": "us", "county": "Suffolk County", "state": "Massachusetts", "state_code": "MA"}, "currency": {"alternate_symbols": ["US$"], "decimal_mark": ".", "disambiguate_symbol": "US$", "html_entity": "$", "iso_code": "USD", "iso_numeric": "840", "name": "United States Dollar", "smallest_denomination": 1, "subunit": "Cent", "subunit_to_unit": 100, "symbol": "$", "symbol_first": 1, "thousands_separator": ","}, "link": "/boston-160-c.html"}, {"search": "Chicago", "geometry": {"lat": 41.8755616, "lng": -87.6244212}, "components": {"ISO_3166-1_alpha-2": "US", "ISO_3166-1_alpha-3": "USA", "_category": "place", "_type": "city", "city": "Chicago", "continent": "North America", "country": "Estados Unidos da América", "country_code": "us", "county": "Cook County", "state": "Illinois", "state_code": "IL"}, "currency": {"alternate_symbols": ["US$"], "decimal_mark": ".", "disambiguate_symbol": "US$", "html_entity": "$", "iso_code": "USD", "iso_numeric": "840", "name": "United States Dollar", "smallest_denomination": 1, "subunit": "Cent", "subunit_to_unit": 100, "symbol": "$", "symbol_first": 1, "thousands_separator": ","}, "link": "/chicago-161-c.html"}, {"search": "Fort Lauderdale", "geometry": {"lat": 26.1223084, "lng": -80.1433786}, "components": {"ISO_3166-1_alpha-2": "US", "ISO_3166-1_alpha-3": "USA", "_category": "place", "_type": "city", "city": "Fort Lauderdale", "continent": "North America", "country": "Estados Unidos da América", "country_code": "us", "county": "Broward County", "state": "Flórida"}, "currency": {"alternate_symbols": ["US$"], "decimal_mark": ".", "disambiguate_symbol": "US$", "html_entity": "$", "iso_code": "USD", "iso_numeric": "840", "name": "United States Dollar", "smallest_denomination": 1, "subunit": "Cent", "subunit_to_unit": 100, "symbol": "$", "symbol_first": 1, "thousands_separator": ","}, "link": "/fort-lauderdale-212-c.html"}, {"search": "Las Vegas", "geometry": {"lat": 36.1672559, "lng": -115.148516}, "components": {"ISO_3166-1_alpha-2": "US", "ISO_3166-1_alpha-3": "USA", "_category": "place", "_type": "city", "city": "Las Vegas", "continent": "North America", "country": "Estados Unidos da América", "country_code": "us", "county": "Clark County", "state": "Nevada", "state_code": "NV"}, "currency": {"alternate_symbols": ["US$"], "decimal_mark": ".", "disambiguate_symbol": "US$", "html_entity": "$", "iso_code": "USD", "iso_numeric": "840", "name": "United States Dollar", "smallest_denomination": 1, "subunit": "Cent", "subunit_to_unit": 100, "symbol": "$", "symbol_first": 1, "thousands_separator": ","}, "link": "/las-vegas-79-c.html"}, {"search": "Los Angeles", "geometry": {"lat": 34.0536909, "lng": -118.242766}, "components": {"ISO_3166-1_alpha-2": "US", "ISO_3166-1_alpha-3": "USA", "_category": "place", "_type": "city", "city": "Los Angeles", "continent": "North America", "country": "Estados Unidos da América", "country_code": "us", "county": "Los Angeles County", "state": "Califórnia"}, "currency": {"alternate_symbols": ["US$"], "decimal_mark": ".", "disambiguate_symbol": "US$", "html_entity": "$", "iso_code": "USD", "iso_numeric": "840", "name": "United States Dollar", "smallest_denomination": 1, "subunit": "Cent", "subunit_to_unit": 100, "symbol": "$", "symbol_first": 1, "thousands_separator": ","}, "link": "/los-angeles-155-c.html"}, {"search": "Miami", "geometry": {"lat": 25.7741728, "lng": -80.19362}, "components": {"ISO_3166-1_alpha-2": "US", "ISO_3166-1_alpha-3": "USA", "_category": "place", "_type": "city", "city": "Miami", "continent": "North America", "country": "Estados Unidos da América", "country_code": "us", "county": "Condado de Miami-Dade", "state": "Flórida"}, "currency": {"alternate_symbols": ["US$"], "decimal_mark": ".", "disambiguate_symbol": "US$", "html_entity": "$", "iso_code": "USD", "iso_numeric": "840", "name": "United States Dollar", "smallest_denomination": 1, "subunit": "Cent", "subunit_to_unit": 100, "symbol": "$", "symbol_first": 1, "thousands_separator": ","}, "link": "/miami-71-c.html"}, {"search": "Montreal", "geometry": {"lat": 45.5031824, "lng": -73.5698065}, "components": {"ISO_3166-1_alpha-2": "CA", "ISO_3166-1_alpha-3": "CAN", "_category": "place", "_type": "city", "city": "Montreal", "continent": "North America", "country": "Canadá", "country_code": "ca", "county": "Agglomération de Montréal", "region": "Montréal (06)", "state": "Quebec", "state_code": "QC"}, "currency": {"alternate_symbols": ["C$", "CAD$"], "decimal_mark": ".", "disambiguate_symbol": "C$", "html_entity": "$", "iso_code": "CAD", "iso_numeric": "124", "name": "Canadian Dollar", "smallest_denomination": 5, "subunit": "Cent", "subunit_to_unit": 100, "symbol": "$", "symbol_first": 1, "thousands_separator": ","}, "link": "/montreal-canada-187-c.html"}, {"search": "Nova York", "geometry": {"lat": 40.7127281, "lng": -74.0060152}, "components": {"ISO_3166-1_alpha-2": "US", "ISO_3166-1_alpha-3": "USA", "_category": "place", "_type": "city", "city": "Nova Iorque", "continent": "North America", "country": "Estados Unidos da América", "country_code": "us", "state": "Nova Iorque"}, "currency": {"alternate_symbols": ["US$"], "decimal_mark": ".", "disambiguate_symbol": "US$", "html_entity": "$", "iso_code": "USD", "iso_numeric": "840", "name": "United States Dollar", "smallest_denomination": 1, "subunit": "Cent", "subunit_to_unit": 100, "symbol": "$", "symbol_first": 1, "thousands_separator": ","}, "link": "/nova-york-60-c.html"}, {"search": "Orlando", "geometry": {"lat": 28.5421109, "lng": -81.3790304}, "components": {"ISO_3166-1_alpha-2": "US", "ISO_3166-1_alpha-3": "USA", "_category": "place", "_type": "city", "city": "Orlando", "continent": "North America", "country": "Estados Unidos da América", "country_code": "us", "county": "Condado de Orange", "state": "Flórida"}, "currency": {"alternate_symbols": ["US$"], "decimal_mark": ".", "disambiguate_symbol": "US$", "html_entity": "$", "iso_code": "USD", "iso_numeric": "840", "name": "United States Dollar", "smallest_denomination": 1, "subunit": "Cent", "subunit_to_unit": 100, "symbol": "$", "symbol_first": 1, "thousands_separator": ","}, "link": "/orlando-73-c.html"}, {"search": "Ottawa", "geometry": {"lat": 45.4211435, "lng": -75.6900574}, "components": {"ISO_3166-1_alpha-2": "CA", "ISO_3166-1_alpha-3": "CAN", "_category": "place", "_type": "city", "city": "Ottawa", "continent": "North America", "country": "Canadá", "country_code": "ca", "county": "Ottawa", "postcode": "K1P 1J1", "state": "Ontário", "state_district": "Eastern Ontario"}, "currency": {"alternate_symbols": ["C$", "CAD$"], "decimal_mark": ".", "disambiguate_symbol": "C$", "html_entity": "$", "iso_code": "CAD", "iso_numeric": "124", "name": "Canadian Dollar", "smallest_denomination": 5, "subunit": "Cent", "subunit_to_unit": 100, "symbol": "$", "symbol_first": 1, "thousands_separator": ","}, "link": "/ottawa-186-c.html"}, {"search": "Quebec", "geometry": {"lat": 52.4760892, "lng": -71.8258668}, "components": {"ISO_3166-1_alpha-2": "CA", "ISO_3166-1_alpha-3": "CAN", "_category": "place", "_type": "state", "continent": "North America", "country": "Canadá", "country_code": "ca", "state": "Quebec", "state_code": "QC"}, "currency": {"alternate_symbols": ["C$", "CAD$"], "decimal_mark": ".", "disambiguate_symbol": "C$", "html_entity": "$", "iso_code": "CAD", "iso_numeric": "124", "name": "Canadian Dollar", "smallest_denomination": 5, "subunit": "Cent", "subunit_to_unit": 100, "symbol": "$", "symbol_first": 1, "thousands_separator": ","}, "link": "/cidade-de-quebec-189-c.html"}, {"search": "São Francisco", "geometry": {"lat": 37.7790262, "lng": -122.419906}, "components": {"ISO_3166-1_alpha-2": "US", "ISO_3166-1_alpha-3": "USA", "_category": "place", "_type": "city", "city": "São Francisco", "continent": "North America", "country": "Estados Unidos da América", "country_code": "us", "state": "Califórnia"}, "currency": {"alternate_symbols": ["US$"], "decimal_mark": ".", "disambiguate_symbol": "US$", "html_entity": "$", "iso_code": "USD", "iso_numeric": "840", "name": "United States Dollar", "smallest_denomination": 1, "subunit": "Cent", "subunit_to_unit": 100, "symbol": "$", "symbol_first": 1, "thousands_separator": ","}, "link": "/sao-francisco-california-92-c.html"}, {"search": "Toronto", "geometry": {"lat": 43.6534817, "lng": -79.3839347}, "components": {"ISO_3166-1_alpha-2": "CA", "ISO_3166-1_alpha-3": "CAN", "_category": "place", "_type": "city", "city": "Toronto", "continent": "North America", "country": "Canadá", "country_code": "ca", "state": "Ontário", "state_district": "Golden Horseshoe"}, "currency": {"alternate_symbols": ["C$", "CAD$"], "decimal_mark": ".", "disambiguate_symbol": "C$", "html_entity": "$", "iso_code": "CAD", "iso_numeric": "124", "name": "Canadian Dollar", "smallest_denomination": 5, "subunit": "Cent", "subunit_to_unit": 100, "symbol": "$", "symbol_first": 1, "thousands_separator": ","}, "link": "/toronto-184-c.html"}, {"search": "Vancouver", "geometry": {"lat": 49.2608724, "lng": -123.113952}, "components": {"ISO_3166-1_alpha-2": "CA", "ISO_3166-1_alpha-3": "CAN", "_category": "place", "_type": "city", "city": "Vancouver", "continent": "North America", "country": "Canadá", "country_code": "ca", "county": "Metro Vancouver Regional District", "municipality": "District of North Vancouver", "state": "Colúmbia Britânica"}, "currency": {"alternate_symbols": ["C$", "CAD$"], "decimal_mark": ".", "disambiguate_symbol": "C$", "html_entity": "$", "iso_code": "CAD", "iso_numeric": "124", "name": "Canadian Dollar", "smallest_denomination": 5, "subunit": "Cent", "subunit_to_unit": 100, "symbol": "$", "symbol_first": 1, "thousands_separator": ","}, "link": "/vancouver-canada-195-c.html"}, {"search": "Washington DC", "geometry": {"lat": 38.8950368, "lng": -77.0365427}, "components": {"ISO_3166-1_alpha-2": "US", "ISO_3166-1_alpha-3": "USA", "_category": "place", "_type": "city", "city": "Washington, D.C.", "continent": "North America", "country": "Estados Unidos da América", "country_code": "us", "state": "District of Columbia", "state_code": "DC"}, "currency": {"alternate_symbols": ["US$"], "decimal_mark": ".", "disambiguate_symbol": "US$", "html_entity": "$", "iso_code": "USD", "iso_numeric": "840", "name": "United States Dollar", "smallest_denomination": 1, "subunit": "Cent", "subunit_to_unit": 100, "symbol": "$", "symbol_first": 1, "thousands_separator": ","}, "link": "/washington-159-c.html"}, {"search": "Amsterdã", "geometry": {"lat": 52.3727598, "lng": 4.8936041}, "components": {"ISO_3166-1_alpha-2": "NL", "ISO_3166-1_alpha-3": "NLD", "_category": "place", "_type": "city", "city": "Amsterdão", "continent": "Europe", "country": "Países Baixos", "country_code": "nl", "municipality": "Amsterdão", "political_union": "European Union", "state": "Noord-Holland", "state_code": "NH"}, "currency": {"alternate_symbols": [], "decimal_mark": ",", "html_entity": "&#x20AC;", "iso_code": "EUR", "iso_numeric": "978", "name": "Euro", "smallest_denomination": 1, "subunit": "Cent", "subunit_to_unit": 100, "symbol": "€", "symbol_first": 0, "thousands_separator": "."}, "link": "/amsterdam-59-c.html"}, {"search": "Atenas", "geometry": {"lat": 37.9839412, "lng": 23.7283052}, "components": {"ISO_3166-1_alpha-2": "GR", "ISO_3166-1_alpha-3": "GRC", "_category": "place", "_type": "city", "city": "Atenas", "continent": "Europe", "country": "Grécia", "country_code": "gr", "county": "Περιφερειακή Ενότητα Κεντρικού Τομέα Αθηνών", "municipality": "Δήμος Αθηναίων", "political_union": "European Union", "postcode": "10431", "state": "Αποκεντρωμένη Διοίκηση Αττικής", "state_district": "Περιφέρεια Αττικής"}, "currency": {"alternate_symbols": [], "decimal_mark": ",", "html_entity": "&#x20AC;", "iso_code": "EUR", "iso_numeric": "978", "name": "Euro", "smallest_denomination": 1, "subunit": "Cent", "subunit_to_unit": 100, "symbol": "€", "symbol_first": 0, "thousands_separator": "."}, "link": "/atenas-84-c.html"}, {"search": "Barcelona", "geometry": {"lat": 41.3828939, "lng": 2.1774322}, "components": {"ISO_3166-1_alpha-2": "ES", "ISO_3166-1_alpha-3": "ESP", "_category": "place", "_type": "city", "city": "Barcelona", "continent": "Europe", "country": "Espanha", "country_code": "es", "county": "Barcelona", "county_code": "B", "municipality": "Barcelonès", "political_union": "European Union", "postcode": "08001", "state": "Catalunha"}, "currency": {"alternate_symbols": [], "decimal_mark": ",", "html_entity": "&#x20AC;", "iso_code": "EUR", "iso_numeric": "978", "name": "Euro", "smallest_denomination": 1, "subunit": "Cent", "subunit_to_unit": 100, "symbol": "€", "symbol_first": 0, "thousands_separator": "."}, "link": "/barcelona-156-c.html"}, {"search": "Berlim", "geometry": {"lat": 52.5170365, "lng": 13.3888599}, "components": {"ISO_3166-1_alpha-2": "DE", "ISO_3166-1_alpha-3": "DEU", "_category": "place", "_type": "city", "city": "Berlim", "continent": "Europe", "country": "Alemanha", "country_code": "de", "political_union": "European Union"}, "currency": {"alternate_symbols": [], "decimal_mark": ",", "html_entity": "&#x20AC;", "iso_code": "EUR", "iso_numeric": "978", "name": "Euro", "smallest_denomination": 1, "subunit": "Cent", "subunit_to_unit": 100, "symbol": "€", "symbol_first": 0, "thousands_separator": "."}, "link": "/berlim-111-c.html"}, {"search": "Bruges", "geometry": {"lat": 51.2085526, "lng": 3.226772}, "components": {"ISO_3166-1_alpha-2": "BE", "ISO_3166-1_alpha-3": "BEL", "_category": "place", "_type": "city", "city": "Bruges", "continent": "Europe", "country": "Bélgica", "country_code": "be", "county": "Bruges", "political_union": "European Union", "region": "Flandres", "state": "West-Vlaanderen", "state_code": "VWV"}, "currency": {"alternate_symbols": [], "decimal_mark": ",", "html_entity": "&#x20AC;", "iso_code": "EUR", "iso_numeric": "978", "name": "Euro", "smallest_denomination": 1, "subunit": "Cent", "subunit_to_unit": 100, "symbol": "€", "symbol_first": 0, "thousands_separator": "."}, "link": "/bruges-116-c.html"}, {"search": "Bruxelas", "geometry": {"lat": 50.8465573, "lng": 4.351697}, "components": {"ISO_3166-1_alpha-2": "BE", "ISO_3166-1_alpha-3": "BEL", "_category": "place", "_type": "city", "city": "Bruxelas", "continent": "Europe", "country": "Bélgica", "country_code": "be", "county": "Brussel-Hoofdstad - Bruxelles-Capitale", "political_union": "European Union", "region": "Région de Bruxelles-Capitale - Brussels Hoofdstedelijk Gewest"}, "currency": {"alternate_symbols": [], "decimal_mark": ",", "html_entity": "&#x20AC;", "iso_code": "EUR", "iso_numeric": "978", "name": "Euro", "smallest_denomination": 1, "subunit": "Cent", "subunit_to_unit": 100, "symbol": "€", "symbol_first": 0, "thousands_separator": "."}, "link": "/bruxelas-231-c.html"}, {"search": "Budapeste", "geometry": {"lat": 47.4979937, "lng": 19.0403594}, "components": {"ISO_3166-1_alpha-2": "HU", "ISO_3166-1_alpha-3": "HUN", "_category": "place", "_type": "state_district", "city": "Budapeste", "continent": "Europe", "country": "Hungria", "country_code": "hu", "district": "V. kerület", "political_union": "European Union", "region": "Közép-Magyarország"}, "currency": {"alternate_symbols": [], "decimal_mark": ",", "format": "%n %u", "html_entity": "", "iso_code": "HUF", "iso_numeric": "348", "name": "Hungarian Forint", "smallest_denomination": 5, "subunit": "", "subunit_to_unit": 1, "symbol": "Ft", "symbol_first": 0, "thousands_separator": " "}, "link": "/budapeste-166-c.html"}, {"search": "Dublin", "geometry": {"lat": 53.3497645, "lng": -6.2602732}, "components": {"ISO_3166-1_alpha-2": "IE", "ISO_3166-1_alpha-3": "IRL", "_category": "place", "_type": "state_district", "city": "Dublin", "continent": "Europe", "country": "Irlanda", "country_code": "ie", "district": "Dublin 1", "political_union": "European Union", "state": "Leinster", "state_code": "L"}, "currency": {"alternate_symbols": [], "decimal_mark": ".", "html_entity": "&#x20AC;", "iso_code": "EUR", "iso_numeric": "978", "name": "Euro", "smallest_denomination": 1, "subunit": "Cent", "subunit_to_unit": 100, "symbol": "€", "symbol_first": 1, "thousands_separator": ","}, "link": "/dublin-154-c.html"}, {"search": "Edimburgo", "geometry": {"lat": 55.9533456, "lng": -3.1883749}, "components": {"ISO_3166-1_alpha-2": "GB", "ISO_3166-1_alpha-3": "GBR", "_category": "place", "_type": "city", "city": "Edimburgo", "continent": "Europe", "country": "Reino Unido", "country_code": "gb", "state": "Escócia"}, "currency": {"alternate_symbols": [], "decimal_mark": ".", "html_entity": "&#x00A3;", "iso_code": "GBP", "iso_numeric": "826", "name": "British Pound", "smallest_denomination": 1, "subunit": "Penny", "subunit_to_unit": 100, "symbol": "£", "symbol_first": 1, "thousands_separator": ","}, "link": "/edimburgo-152-c.html"}, {"search": "Florença", "geometry": {"lat": 43.7698712, "lng": 11.2555757}, "components": {"ISO_3166-1_alpha-2": "IT", "ISO_3166-1_alpha-3": "ITA", "_category": "place", "_type": "city", "city": "Florença", "continent": "Europe", "country": "Itália", "country_code": "it", "county": "Firenze", "county_code": "FI", "political_union": "European Union", "state": "Toscana", "state_code": "TOS"}, "currency": {"alternate_symbols": [], "decimal_mark": ",", "html_entity": "&#x20AC;", "iso_code": "EUR", "iso_numeric": "978", "name": "Euro", "smallest_denomination": 1, "subunit": "Cent", "subunit_to_unit": 100, "symbol": "€", "symbol_first": 0, "thousands_separator": "."}, "link": "/florenca-179-c.html"}, {"search": "Frankfurt", "geometry": {"lat": 50.1106444, "lng": 8.6820917}, "components": {"ISO_3166-1_alpha-2": "DE", "ISO_3166-1_alpha-3": "DEU", "_category": "place", "_type": "city", "city": "Frankfurt sobre o Meno", "continent": "Europe", "country": "Alemanha", "country_code": "de", "political_union": "European Union", "state": "Hesse", "state_code": "HE"}, "currency": {"alternate_symbols": [], "decimal_mark": ",", "html_entity": "&#x20AC;", "iso_code": "EUR", "iso_numeric": "978", "name": "Euro", "smallest_denomination": 1, "subunit": "Cent", "subunit_to_unit": 100, "symbol": "€", "symbol_first": 0, "thousands_separator": "."}, "link": "/frankfurt-196-c.html"}, {"search": "Genebra", "geometry": {"lat": 46.2017559, "lng": 6.1466014}, "components": {"ISO_3166-1_alpha-2": "CH", "ISO_3166-1_alpha-3": "CHE", "_category": "place", "_type": "city", "city": "Genebra", "continent": "Europe", "country": "Suíça", "country_code": "ch", "state": "Genève", "state_code": "GE"}, "currency": {"alternate_symbols": ["SFr", "Fr"], "decimal_mark": ".", "format": "%u%n", "html_entity": "", "iso_code": "CHF", "iso_numeric": "756", "name": "Swiss Franc", "smallest_denomination": 5, "subunit": "Rappen", "subunit_to_unit": 100, "symbol": "CHF", "symbol_first": 1, "thousands_separator": ","}, "link": "/genebra-209-c.html"}, {"search": "Lisboa", "geometry": {"lat": 38.7077507, "lng": -9.1365919}, "components": {"ISO_3166-1_alpha-2": "PT", "ISO_3166-1_alpha-3": "PRT", "_category": "place", "_type": "city", "city": "Lisboa", "continent": "Europe", "country": "Portugal", "country_code": "pt", "county": "Lisboa", "county_code": "LSB", "political_union": "European Union"}, "currency": {"alternate_symbols": [], "decimal_mark": ",", "html_entity": "&#x20AC;", "iso_code": "EUR", "iso_numeric": "978", "name": "Euro", "smallest_denomination": 1, "subunit": "Cent", "subunit_to_unit": 100, "symbol": "€", "symbol_first": 0, "thousands_separator": "."}, "link": "/lisboa-157-c.html"}, {"search": "Londres", "geometry": {"lat": 51.5073219, "lng": -0.1276474}, "components": {"ISO_3166-1_alpha-2": "GB", "ISO_3166-1_alpha-3": "GBR", "_category": "place", "_type": "city", "city": "Londres", "continent": "Europe", "country": "Reino Unido", "country_code": "gb", "state": "Inglaterra", "state_district": "Grande Londres"}, "currency": {"alternate_symbols": [], "decimal_mark": ".", "html_entity": "&#x00A3;", "iso_code": "GBP", "iso_numeric": "826", "name": "British Pound", "smallest_denomination": 1, "subunit": "Penny", "subunit_to_unit": 100, "symbol": "£", "symbol_first": 1, "thousands_separator": ","}, "link": "/londres-77-c.html"}, {"search": "Madri", "geometry": {"lat": 24.2493612, "lng": 73.4872823}, "components": {"ISO_3166-1_alpha-2": "IN", "ISO_3166-1_alpha-3": "IND", "_category": "place", "_type": "village", "city_district": "Madri", "continent": "Asia", "country": "Índia", "country_code": "in", "county": "Jhadol Tehsil", "state": "Rajasthan", "state_code": "RJ", "state_district": "Udaipur", "village": "Madri"}, "currency": {"alternate_symbols": ["Rs", "৳", "૱", "௹", "रु", "₨"], "decimal_mark": ".", "html_entity": "&#x20b9;", "iso_code": "INR", "iso_numeric": "356", "name": "Indian Rupee", "smallest_denomination": 50, "subunit": "Paisa", "subunit_to_unit": 100, "symbol": "₹", "symbol_first": 1, "thousands_separator": ","}, "link": "/madri-58-c.html"}, {"search": "Milão", "geometry": {"lat": 45.4641943, "lng": 9.1896346}, "components": {"ISO_3166-1_alpha-2": "IT", "ISO_3166-1_alpha-3": "ITA", "_category": "place", "_type": "city", "city": "Milão", "continent": "Europe", "country": "Itália", "country_code": "it", "county": "Milão", "political_union": "European Union", "state": "Lombardia", "state_code": "LOM"}, "currency": {"alternate_symbols": [], "decimal_mark": ",", "html_entity": "&#x20AC;", "iso_code": "EUR", "iso_numeric": "978", "name": "Euro", "smallest_denomination": 1, "subunit": "Cent", "subunit_to_unit": 100, "symbol": "€", "symbol_first": 0, "thousands_separator": "."}, "link": "/milao-91-c.html"}, {"search": "Moscou", "geometry": {"lat": 55.7504461, "lng": 37.6174943}, "components": {"ISO_3166-1_alpha-2": "RU", "ISO_3166-1_alpha-3": "RUS", "_category": "place", "_type": "city", "city": "Moscou", "continent": "Europe", "country": "Rússia", "country_code": "ru", "region": "Distrito Federal Central", "state": "Moscovo"}, "currency": {"alternate_symbols": ["руб.", "р."], "decimal_mark": ",", "format": "%n %u", "html_entity": "&#x20BD;", "iso_code": "RUB", "iso_numeric": "643", "name": "Russian Ruble", "smallest_denomination": 1, "subunit": "Kopeck", "subunit_to_unit": 100, "symbol": "₽", "symbol_first": 0, "thousands_separator": "."}, "link": "/moscou-137-c.html"}, {"search": "Munique", "geometry": {"lat": 48.1371079, "lng": 11.5753822}, "components": {"ISO_3166-1_alpha-2": "DE", "ISO_3166-1_alpha-3": "DEU", "_category": "place", "_type": "city", "city": "Munique", "continent": "Europe", "country": "Alemanha", "country_code": "de", "political_union": "European Union", "state": "Baviera"}, "currency": {"alternate_symbols": [], "decimal_mark": ",", "html_entity": "&#x20AC;", "iso_code": "EUR", "iso_numeric": "978", "name": "Euro", "smallest_denomination": 1, "subunit": "Cent", "subunit_to_unit": 100, "symbol": "€", "symbol_first": 0, "thousands_separator": "."}, "link": "/munique-63-c.html"}, {"search": "Normandia", "geometry": {"lat": 49.0677708, "lng": 0.3138532}, "components": {"ISO_3166-1_alpha-2": "FR", "ISO_3166-1_alpha-3": "FRA", "_category": "place", "_type": "state", "continent": "Europe", "country": "França", "country_code": "fr", "political_union": "European Union", "region": "França metropolitana", "state": "Normandia"}, "currency": {"alternate_symbols": [], "decimal_mark": ",", "html_entity": "&#x20AC;", "iso_code": "EUR", "iso_numeric": "978", "name": "Euro", "smallest_denomination": 1, "subunit": "Cent", "subunit_to_unit": 100, "symbol": "€", "symbol_first": 0, "thousands_separator": "."}, "link": "/normandia-178-c.html"}, {"search": "Paris", "geometry": {"lat": 48.8588897, "lng": 2.320041}, "components": {"ISO_3166-1_alpha-2": "FR", "ISO_3166-1_alpha-3": "FRA", "_category": "place", "_type": "neighbourhood", "city": "Paris", "city_district": "Paris", "continent": "Europe", "country": "França", "country_code": "fr", "political_union": "European Union", "region": "França metropolitana", "state": "Ilha de França", "suburb": "Paris"}, "currency": {"alternate_symbols": [], "decimal_mark": ",", "html_entity": "&#x20AC;", "iso_code": "EUR", "iso_numeric": "978", "name": "Euro", "smallest_denomination": 1, "subunit": "Cent", "subunit_to_unit": 100, "symbol": "€", "symbol_first": 0, "thousands_separator": "."}, "link": "/paris-70-c.html"}, {"search": "Pisa", "geometry": {"lat": 43.7159395, "lng": 10.4018624}, "components": {"ISO_3166-1_alpha-2": "IT", "ISO_3166-1_alpha-3": "ITA", "_category": "place", "_type": "city", "city": "Pisa", "continent": "Europe", "country": "Itália", "country_code": "it", "county": "Pisa", "county_code": "PI", "political_union": "European Union", "state": "Toscana", "state_code": "TOS"}, "currency": {"alternate_symbols": [], "decimal_mark": ",", "html_entity": "&#x20AC;", "iso_code": "EUR", "iso_numeric": "978", "name": "Euro", "smallest_denomination": 1, "subunit": "Cent", "subunit_to_unit": 100, "symbol": "€", "symbol_first": 0, "thousands_separator": "."}, "link": "/pisa-180-c.html"}, {"search": "Porto", "geometry": {"lat": 41.1494512, "lng": -8.6107884}, "components": {"ISO_3166-1_alpha-2": "PT", "ISO_3166-1_alpha-3": "PRT", "_category": "place", "_type": "city", "city": "Porto", "continent": "Europe", "country": "Portugal", "country_code": "pt", "county": "Porto", "county_code": "PRT", "political_union": "European Union"}, "currency": {"alternate_symbols": [], "decimal_mark": ",", "html_entity": "&#x20AC;", "iso_code": "EUR", "iso_numeric": "978", "name": "Euro", "smallest_denomination": 1, "subunit": "Cent", "subunit_to_unit": 100, "symbol": "€", "symbol_first": 0, "thousands_separator": "."}, "link": "/porto-158-c.html"}, {"search": "Praga", "geometry": {"lat": 50.0596288, "lng": 14.4464593}, "components": {"ISO_3166-1_alpha-2": "CZ", "ISO_3166-1_alpha-3": "CZE", "_category": "place", "_type": "neighbourhood", "city": "Praga", "city_district": "Praha", "continent": "Europe", "country": "Tcheca", "country_code": "cz", "political_union": "European Union", "state": "Praha"}, "currency": {"alternate_symbols": [], "decimal_mark": ",", "format": "%n %u", "html_entity": "", "iso_code": "CZK", "iso_numeric": "203", "name": "Czech Koruna", "smallest_denomination": 100, "subunit": "Haléř", "subunit_to_unit": 100, "symbol": "Kč", "symbol_first": 0, "thousands_separator": " "}, "link": "/praga-217-c.html"}, {"search": "Roma", "geometry": {"lat": 41.8933203, "lng": 12.4829321}, "components": {"ISO_3166-1_alpha-2": "IT", "ISO_3166-1_alpha-3": "ITA", "_category": "place", "_type": "city", "city": "Roma", "continent": "Europe", "country": "Itália", "country_code": "it", "county": "Roma Capitale", "county_code": "RM", "political_union": "European Union", "state": "Lazio", "state_code": "LAZ"}, "currency": {"alternate_symbols": [], "decimal_mark": ",", "html_entity": "&#x20AC;", "iso_code": "EUR", "iso_numeric": "978", "name": "Euro", "smallest_denomination": 1, "subunit": "Cent", "subunit_to_unit": 100, "symbol": "€", "symbol_first": 0, "thousands_separator": "."}, "link": "/roma-87-c.html"}, {"search": "Siena", "geometry": {"lat": 35.000074, "lng": 104.999927}, "components": {"ISO_3166-1_alpha-2": "CN", "ISO_3166-1_alpha-3": "CHN", "_category": "place", "_type": "country", "continent": "Asia", "country": "China", "country_code": "cn"}, "currency": {"alternate_symbols": ["CN¥", "元", "CN元"], "decimal_mark": ".", "html_entity": "￥", "iso_code": "CNY", "iso_numeric": "156", "name": "Chinese Renminbi Yuan", "smallest_denomination": 1, "subunit": "Fen", "subunit_to_unit": 100, "symbol": "¥", "symbol_first": 1, "thousands_separator": ","}, "link": "/siena-181-c.html"}, {"search": "Split", "geometry": {"lat": 43.5116383, "lng": 16.4399659}, "components": {"ISO_3166-1_alpha-2": "HR", "ISO_3166-1_alpha-3": "HRV", "_category": "place", "_type": "city", "city": "Split", "continent": "Europe", "country": "Croácia", "country_code": "hr", "county": "Splitsko-dalmatinska županija", "municipality": "Grad Split", "political_union": "European Union"}, "currency": {"alternate_symbols": [], "decimal_mark": ",", "format": "%n %u", "html_entity": "", "iso_code": "HRK", "iso_numeric": "191", "name": "Croatian Kuna", "smallest_denomination": 1, "subunit": "Lipa", "subunit_to_unit": 100, "symbol": "kn", "symbol_first": 0, "thousands_separator": "."}, "link": "/split-117-c.html"}, {"search": "São Petersburgo", "geometry": {"lat": 59.938732, "lng": 30.316229}, "components": {"ISO_3166-1_alpha-2": "RU", "ISO_3166-1_alpha-3": "RUS", "_category": "place", "_type": "city", "city": "São Petersburgo", "continent": "Europe", "country": "Rússia", "country_code": "ru", "region": "Северо-Западный федеральный округ", "state": "São Petersburgo"}, "currency": {"alternate_symbols": ["руб.", "р."], "decimal_mark": ",", "format": "%n %u", "html_entity": "&#x20BD;", "iso_code": "RUB", "iso_numeric": "643", "name": "Russian Ruble", "smallest_denomination": 1, "subunit": "Kopeck", "subunit_to_unit": 100, "symbol": "₽", "symbol_first": 0, "thousands_separator": "."}, "link": "/sao-petersburgo-138-c.html"}, {"search": "Vale do Loire", "geometry": {"lat": 48.1682009, "lng": 0.5569169}, "components": {"ISO_3166-1_alpha-2": "FR", "ISO_3166-1_alpha-3": "FRA", "_category": "building", "_type": "building", "continent": "Europe", "country": "França", "country_code": "fr", "county": "Sarthe", "isolated_dwelling": "Le Va", "municipality": "Mamers", "political_union": "European Union", "postcode": "72400", "region": "França metropolitana", "state": "País do Loire", "village": "Saint-Aubin-des-Coudrais"}, "currency": {"alternate_symbols": [], "decimal_mark": ",", "html_entity": "&#x20AC;", "iso_code": "EUR", "iso_numeric": "978", "name": "Euro", "smallest_denomination": 1, "subunit": "Cent", "subunit_to_unit": 100, "symbol": "€", "symbol_first": 0, "thousands_separator": "."}, "link": "/vale-do-loire-151-c.html"}, {"search": "Veneza", "geometry": {"lat": 45.4371908, "lng": 12.3345898}, "components": {"ISO_3166-1_alpha-2": "IT", "ISO_3166-1_alpha-3": "ITA", "_category": "place", "_type": "city", "city": "Veneza", "continent": "Europe", "country": "Itália", "country_code": "it", "county": "Venezia", "county_code": "VE", "political_union": "European Union", "state": "Véneto"}, "currency": {"alternate_symbols": [], "decimal_mark": ",", "html_entity": "&#x20AC;", "iso_code": "EUR", "iso_numeric": "978", "name": "Euro", "smallest_denomination": 1, "subunit": "Cent", "subunit_to_unit": 100, "symbol": "€", "symbol_first": 0, "thousands_separator": "."}, "link": "/veneza-53-c.html"}, {"search": "Viena", "geometry": {"lat": 48.2083537, "lng": 16.3725042}, "components": {"ISO_3166-1_alpha-2": "AT", "ISO_3166-1_alpha-3": "AUT", "_category": "place", "_type": "city", "city": "Viena", "continent": "Europe", "country": "Áustria", "country_code": "at", "political_union": "European Union"}, "currency": {"alternate_symbols": [], "decimal_mark": ",", "html_entity": "&#x20AC;", "iso_code": "EUR", "iso_numeric": "978", "name": "Euro", "smallest_denomination": 1, "subunit": "Cent", "subunit_to_unit": 100, "symbol": "€", "symbol_first": 1, "thousands_separator": "."}, "link": "/viena-167-c.html"}, {"search": "Zurique", "geometry": {"lat": 47.3744489, "lng": 8.5410422}, "components": {"ISO_3166-1_alpha-2": "CH", "ISO_3166-1_alpha-3": "CHE", "_category": "place", "_type": "city", "city": "Zurique", "continent": "Europe", "country": "Suíça", "country_code": "ch", "county": "Bezirk Zürich", "state": "Zurique"}, "currency": {"alternate_symbols": ["SFr", "Fr"], "decimal_mark": ".", "format": "%u%n", "html_entity": "", "iso_code": "CHF", "iso_numeric": "756", "name": "Swiss Franc", "smallest_denomination": 5, "subunit": "Rappen", "subunit_to_unit": 100, "symbol": "CHF", "symbol_first": 1, "thousands_separator": ","}, "link": "/zurique-210-c.html"}, {"search": "Cairns", "geometry": {"lat": -16.9206657, "lng": 145.7721854}, "components": {"ISO_3166-1_alpha-2": "AU", "ISO_3166-1_alpha-3": "AUS", "_category": "place", "_type": "city", "city": "Cairns", "continent": "Oceania", "country": "Austrália", "country_code": "au", "municipality": "Cairns Regional", "postcode": "4870", "state": "Queensland", "state_code": "QLD"}, "currency": {"alternate_symbols": ["A$"], "decimal_mark": ".", "disambiguate_symbol": "A$", "html_entity": "$", "iso_code": "AUD", "iso_numeric": "036", "name": "Australian Dollar", "smallest_denomination": 5, "subunit": "Cent", "subunit_to_unit": 100, "symbol": "$", "symbol_first": 1, "thousands_separator": ","}, "link": "/cairns-170-c.html"}, {"search": "Gold Coast", "geometry": {"lat": -28.0023731, "lng": 153.4145987}, "components": {"ISO_3166-1_alpha-2": "AU", "ISO_3166-1_alpha-3": "AUS", "_category": "place", "_type": "city", "city": "Gold Coast City", "continent": "Oceania", "country": "Austrália", "country_code": "au", "state": "Queensland", "state_code": "QLD"}, "currency": {"alternate_symbols": ["A$"], "decimal_mark": ".", "disambiguate_symbol": "A$", "html_entity": "$", "iso_code": "AUD", "iso_numeric": "036", "name": "Australian Dollar", "smallest_denomination": 5, "subunit": "Cent", "subunit_to_unit": 100, "symbol": "$", "symbol_first": 1, "thousands_separator": ","}, "link": "/gold-coast-172-c.html"}, {"search": "Melbourne", "geometry": {"lat": -37.8142176, "lng": 144.9631608}, "components": {"ISO_3166-1_alpha-2": "AU", "ISO_3166-1_alpha-3": "AUS", "_category": "place", "_type": "city", "city": "Melbourne", "continent": "Oceania", "country": "Austrália", "country_code": "au", "municipality": "City of Melbourne", "state": "Victoria", "state_code": "VIC"}, "currency": {"alternate_symbols": ["A$"], "decimal_mark": ".", "disambiguate_symbol": "A$", "html_entity": "$", "iso_code": "AUD", "iso_numeric": "036", "name": "Australian Dollar", "smallest_denomination": 5, "subunit": "Cent", "subunit_to_unit": 100, "symbol": "$", "symbol_first": 1, "thousands_separator": ","}, "link": "/melbourne-177-c.html"}, {"search": "Nova Zelândia", "geometry": {"lat": -41.5000831, "lng": 172.8344077}, "components": {"ISO_3166-1_alpha-2": "NZ", "ISO_3166-1_alpha-3": "NZL", "_category": "place", "_type": "country", "continent": "Oceania", "country": "Nova Zelândia", "country_code": "nz"}, "currency": {"alternate_symbols": ["NZ$"], "decimal_mark": ".", "disambiguate_symbol": "NZ$", "html_entity": "$", "iso_code": "NZD", "iso_numeric": "554", "name": "New Zealand Dollar", "smallest_denomination": 10, "subunit": "Cent", "subunit_to_unit": 100, "symbol": "$", "symbol_first": 1, "thousands_separator": ","}, "link": "/nova-zelandia-218-c.html"}, {"search": "Perth", "geometry": {"lat": -31.9527121, "lng": 115.8604796}, "components": {"ISO_3166-1_alpha-2": "AU", "ISO_3166-1_alpha-3": "AUS", "_category": "place", "_type": "city", "city": "Perth", "continent": "Oceania", "country": "Austrália", "country_code": "au", "county": "City of Perth", "postcode": "6000", "state": "Austrália Ocidental"}, "currency": {"alternate_symbols": ["A$"], "decimal_mark": ".", "disambiguate_symbol": "A$", "html_entity": "$", "iso_code": "AUD", "iso_numeric": "036", "name": "Australian Dollar", "smallest_denomination": 5, "subunit": "Cent", "subunit_to_unit": 100, "symbol": "$", "symbol_first": 1, "thousands_separator": ","}, "link": "/perth-174-c.html"}, {"search": "Sydney", "geometry": {"lat": -33.8548157, "lng": 151.2164539}, "components": {"ISO_3166-1_alpha-2": "AU", "ISO_3166-1_alpha-3": "AUS", "_category": "place", "_type": "city", "city": "Sydney", "continent": "Oceania", "country": "Austrália", "country_code": "au", "state": "Nova Gales do Sul"}, "currency": {"alternate_symbols": ["A$"], "decimal_mark": ".", "disambiguate_symbol": "A$", "html_entity": "$", "iso_code": "AUD", "iso_numeric": "036", "name": "Australian Dollar", "smallest_denomination": 5, "subunit": "Cent", "subunit_to_unit": 100, "symbol": "$", "symbol_first": 1, "thousands_separator": ","}, "link": "/sydney-176-c.html"}, {"search": "Cidade do Cabo", "geometry": {"lat": -33.928992, "lng": 18.417396}, "components": {"ISO_3166-1_alpha-2": "ZA", "ISO_3166-1_alpha-3": "ZAF", "_category": "place", "_type": "city", "city": "Cidade do Cabo", "continent": "Africa", "country": "África do Sul", "country_code": "za", "county": "City of Cape Town", "postcode": "8001", "state": "Cabo Ocidental"}, "currency": {"alternate_symbols": [], "decimal_mark": ".", "html_entity": "&#x0052;", "iso_code": "ZAR", "iso_numeric": "710", "name": "South African Rand", "smallest_denomination": 10, "subunit": "Cent", "subunit_to_unit": 100, "symbol": "R", "symbol_first": 1, "thousands_separator": ","}, "link": "/cidade-do-cabo-140-c.html"}, {"search": "Joanesburgo", "geometry": {"lat": -26.205, "lng": 28.049722}, "components": {"ISO_3166-1_alpha-2": "ZA", "ISO_3166-1_alpha-3": "ZAF", "_category": "place", "_type": "city", "city": "Joanesburgo", "continent": "Africa", "country": "África do Sul", "country_code": "za", "county": "City of Johannesburg Metropolitan Municipality", "municipality": "City of Johannesburg Metropolitan Municipality", "postcode": "2001", "state": "Gauteng", "state_code": "GT"}, "currency": {"alternate_symbols": [], "decimal_mark": ".", "html_entity": "&#x0052;", "iso_code": "ZAR", "iso_numeric": "710", "name": "South African Rand", "smallest_denomination": 10, "subunit": "Cent", "subunit_to_unit": 100, "symbol": "R", "symbol_first": 1, "thousands_separator": ","}, "link": "/johannesburgo-141-c.html"}, {"search": "Maputo", "geometry": {"lat": -25.966213, "lng": 32.56745}, "components": {"ISO_3166-1_alpha-2": "MZ", "ISO_3166-1_alpha-3": "MOZ", "_category": "place", "_type": "city", "city": "Maputo", "continent": "Africa", "country": "Moçambique", "country_code": "mz"}, "currency": {"alternate_symbols": ["MZN"], "decimal_mark": ",", "html_entity": "", "iso_code": "MZN", "iso_numeric": "943", "name": "Mozambican Metical", "smallest_denomination": 1, "subunit": "Centavo", "subunit_to_unit": 100, "symbol": "MTn", "symbol_first": 1, "thousands_separator": "."}, "link": "/maputo-215-c.html"}, {"search": "Namíbia", "geometry": {"lat": -23.2335499, "lng": 17.3231107}, "components": {"ISO_3166-1_alpha-2": "NA", "ISO_3166-1_alpha-3": "NAM", "_category": "place", "_type": "country", "continent": "Africa", "country": "Namíbia", "country_code": "na"}, "currency": {"alternate_symbols": ["N$"], "decimal_mark": ".", "disambiguate_symbol": "N$", "format": "%n %u", "html_entity": "$", "iso_code": "NAD", "iso_numeric": "516", "name": "Namibian Dollar", "smallest_denomination": 5, "subunit": "Cent", "subunit_to_unit": 100, "symbol": "$", "symbol_first": 0, "thousands_separator": ","}, "link": "/namibia-216-c.html"}, {"search": "Bali", "geometry": {"lat": 48.8588897, "lng": 2.320041}, "components": {"ISO_3166-1_alpha-2": "FR", "ISO_3166-1_alpha-3": "FRA", "_category": "place", "_type": "neighbourhood", "city": "Paris", "city_district": "Paris", "continent": "Europe", "country": "França", "country_code": "fr", "political_union": "European Union", "region": "França metropolitana", "state": "Ilha de França", "suburb": "Paris"}, "currency": {"alternate_symbols": [], "decimal_mark": ",", "html_entity": "&#x20AC;", "iso_code": "EUR", "iso_numeric": "978", "name": "Euro", "smallest_denomination": 1, "subunit": "Cent", "subunit_to_unit": 100, "symbol": "€", "symbol_first": 0, "thousands_separator": "."}, "link": "/bali-indonesia-202-c.html"}, {"search": "Bangkok", "geometry": {"lat": 13.7525438, "lng": 100.4934734}, "components": {"ISO_3166-1_alpha-2": "TH", "ISO_3166-1_alpha-3": "THA", "_category": "place", "_type": "city", "city": "Banguecoque", "continent": "Asia", "country": "Tailândia", "country_code": "th", "state": "Banguecoque"}, "currency": {"alternate_symbols": [], "decimal_mark": ".", "html_entity": "&#x0E3F;", "iso_code": "THB", "iso_numeric": "764", "name": "Thai Baht", "smallest_denomination": 1, "subunit": "Satang", "subunit_to_unit": 100, "symbol": "฿", "symbol_first": 1, "thousands_separator": ","}, "link": "/bangkok-146-c.html"}, {"search": "Capadócia", "geometry": {"lat": 38.646806, "lng": 34.8491554}, "components": {"ISO_3166-1_alpha-2": "TR", "ISO_3166-1_alpha-3": "TUR", "_category": "travel/tourism", "_type": "attraction", "attraction": "Capadócia", "city": "Ortahisar Beldesi", "continent": "Asia", "country": "Turquia", "country_code": "tr", "county": "Nevşehir Merkez", "municipality": "Ürgüp", "postcode": "50650", "province": "Nevşehir", "region": "İç Anadolu Bölgesi", "road": "Göreme-Ortahisar yolu", "state": "Nevşehir"}, "currency": {"alternate_symbols": ["TL"], "decimal_mark": ",", "html_entity": "&#8378;", "iso_code": "TRY", "iso_numeric": "949", "name": "Turkish Lira", "smallest_denomination": 1, "subunit": "kuruş", "subunit_to_unit": 100, "symbol": "₺", "symbol_first": 1, "thousands_separator": "."}, "link": "/capadocia-183-c.html"}, {"search": "Filipinas", "geometry": {"lat": 12.7503486, "lng": 122.7312101}, "components": {"ISO_3166-1_alpha-2": "PH", "ISO_3166-1_alpha-3": "PHL", "_category": "place", "_type": "country", "continent": "Asia", "country": "Filipinas", "country_code": "ph"}, "currency": {"alternate_symbols": ["PHP", "PhP", "P"], "decimal_mark": ".", "html_entity": "&#x20B1;", "iso_code": "PHP", "iso_numeric": "608", "name": "Philippine Peso", "smallest_denomination": 1, "subunit": "Centavo", "subunit_to_unit": 100, "symbol": "₱", "symbol_first": 1, "thousands_separator": ","}, "link": "/filipinas-240-c.html"}, {"search": "Hanói", "geometry": {"lat": 21.0294498, "lng": 105.8544441}, "components": {"ISO_3166-1_alpha-2": "VN", "ISO_3166-1_alpha-3": "VNM", "_category": "place", "_type": "city", "city": "Hanói", "continent": "Asia", "country": "Vietname", "country_code": "vn"}, "currency": {"alternate_symbols": [], "decimal_mark": ",", "format": "%n %u", "html_entity": "&#x20AB;", "iso_code": "VND", "iso_numeric": "704", "name": "Vietnamese Đồng", "smallest_denomination": 100, "subunit": "Hào", "subunit_to_unit": 1, "symbol": "₫", "symbol_first": 0, "thousands_separator": "."}, "link": "/hanoi-147-c.html"}, {"search": "Ho Chi Minh City", "geometry": {"lat": 10.7715512, "lng": 106.6983801}, "components": {"ISO_3166-1_alpha-2": "VN", "ISO_3166-1_alpha-3": "VNM", "_category": "place", "_type": "city", "continent": "Asia", "country": "Vietname", "country_code": "vn", "town": "Thành phố Hồ Chí Minh"}, "currency": {"alternate_symbols": [], "decimal_mark": ",", "format": "%n %u", "html_entity": "&#x20AB;", "iso_code": "VND", "iso_numeric": "704", "name": "Vietnamese Đồng", "smallest_denomination": 100, "subunit": "Hào", "subunit_to_unit": 1, "symbol": "₫", "symbol_first": 0, "thousands_separator": "."}, "link": "/ho-chi-minh-148-c.html"}, {"search": "Hong Kong", "geometry": {"lat": 22.2793278, "lng": 114.1628131}, "components": {"ISO_3166-1_alpha-2": "HK", "ISO_3166-1_alpha-3": "HKG", "_category": "place", "_type": "city", "city": "Ilha de Hong Kong", "continent": "Asia", "country": "China", "country_code": "cn", "postcode": "000000", "state": "Hong Kong"}, "currency": {"alternate_symbols": ["HK$"], "decimal_mark": ".", "disambiguate_symbol": "HK$", "html_entity": "$", "iso_code": "HKD", "iso_numeric": "344", "name": "Hong Kong Dollar", "smallest_denomination": 10, "subunit": "Cent", "subunit_to_unit": 100, "symbol": "$", "symbol_first": 1, "thousands_separator": ","}, "link": "/hong-kong-201-c.html"}, {"search": "Istambul", "geometry": {"lat": 41.0091982, "lng": 28.9662187}, "components": {"ISO_3166-1_alpha-2": "TR", "ISO_3166-1_alpha-3": "TUR", "_category": "place", "_type": "city", "city": "Istambul", "continent": "Europe", "country": "Turquia", "country_code": "tr", "postcode": "34126", "province": "İstanbul", "region": "Marmara Bölgesi", "state": "İstanbul", "town": "Fatih"}, "currency": {"alternate_symbols": ["TL"], "decimal_mark": ",", "html_entity": "&#8378;", "iso_code": "TRY", "iso_numeric": "949", "name": "Turkish Lira", "smallest_denomination": 1, "subunit": "kuruş", "subunit_to_unit": 100, "symbol": "₺", "symbol_first": 1, "thousands_separator": "."}, "link": "/istambul-105-c.html"}, {"search": "Kuala Lumpur", "geometry": {"lat": 3.1516964, "lng": 101.6942371}, "components": {"ISO_3166-1_alpha-2": "MY", "ISO_3166-1_alpha-3": "MYS", "_category": "place", "_type": "city", "city": "Kuala Lumpur", "continent": "Asia", "country": "Malásia", "country_code": "my"}, "currency": {"alternate_symbols": [], "decimal_mark": ".", "html_entity": "", "iso_code": "MYR", "iso_numeric": "458", "name": "Malaysian Ringgit", "smallest_denomination": 5, "subunit": "Sen", "subunit_to_unit": 100, "symbol": "RM", "symbol_first": 1, "thousands_separator": ","}, "link": "/kuala-lumpur-207-c.html"}, {"search": "Kyoto", "geometry": {"lat": 35.021041, "lng": 135.7556075}, "components": {"ISO_3166-1_alpha-2": "JP", "ISO_3166-1_alpha-3": "JPN", "_category": "place", "_type": "city", "city": "Quioto", "continent": "Asia", "country": "Japão", "country_code": "jp", "province": "京都府", "state": "京都府"}, "currency": {"alternate_symbols": ["円", "圓"], "decimal_mark": ".", "html_entity": "&#x00A5;", "iso_code": "JPY", "iso_numeric": "392", "name": "Japanese Yen", "smallest_denomination": 1, "subunit_to_unit": 1, "symbol": "¥", "symbol_first": 1, "thousands_separator": ","}, "link": "/kyoto-japao-198-c.html"}, {"search": "Luang Prabang", "geometry": {"lat": 19.8887438, "lng": 102.135898}, "components": {"ISO_3166-1_alpha-2": "LA", "ISO_3166-1_alpha-3": "LAO", "_category": "place", "_type": "city", "city": "ຫຼວງພະບາງ", "continent": "Asia", "country": "Laos", "country_code": "la", "county": "ເມືອງຫຼວງພະບາງ", "postcode": "10000", "state": "ຫລວງພະບາງ", "state_code": "LP"}, "currency": {"alternate_symbols": ["₭N"], "decimal_mark": ".", "format": "%n %u", "html_entity": "&#x20AD;", "iso_code": "LAK", "iso_numeric": "418", "name": "Lao Kip", "smallest_denomination": 10, "subunit": "Att", "subunit_to_unit": 100, "symbol": "₭", "symbol_first": 0, "thousands_separator": ","}, "link": "/luang-prabang-149-c.html"}, {"search": "Maldivas", "geometry": {"lat": 3.7203503, "lng": 73.2244152}, "components": {"ISO_3166-1_alpha-2": "MV", "ISO_3166-1_alpha-3": "MDV", "_category": "place", "_type": "country", "continent": "Asia", "country": "Maldivas", "country_code": "mv"}, "currency": {"alternate_symbols": ["MRF", "Rf", "/-", "ރ"], "decimal_mark": ".", "format": "%n %u", "html_entity": "", "iso_code": "MVR", "iso_numeric": "462", "name": "Maldivian Rufiyaa", "smallest_denomination": 1, "subunit": "Laari", "subunit_to_unit": 100, "symbol": "MVR", "symbol_first": 0, "thousands_separator": ","}, "link": "/maldivas-242-c.html"}, {"search": "Phi Phi", "geometry": {"lat": 14.5566605, "lng": 121.1568677}, "components": {"ISO_3166-1_alpha-2": "PH", "ISO_3166-1_alpha-3": "PHL", "_category": "road", "_type": "road", "continent": "Asia", "country": "Filipinas", "country_code": "ph", "neighbourhood": "Amarilyo Crest", "postcode": "1920", "region": "Calabarzon", "road": "Phi Phi", "road_type": "residential", "state": "Rizal", "state_code": "RIZ", "village": "Taytay"}, "currency": {"alternate_symbols": ["PHP", "PhP", "P"], "decimal_mark": ".", "html_entity": "&#x20B1;", "iso_code": "PHP", "iso_numeric": "608", "name": "Philippine Peso", "smallest_denomination": 1, "subunit": "Centavo", "subunit_to_unit": 100, "symbol": "₱", "symbol_first": 1, "thousands_separator": ","}, "link": "/phi-phi-153-c.html"}, {"search": "Phuket", "geometry": {"lat": 7.9366015, "lng": 98.3529292}, "components": {"ISO_3166-1_alpha-2": "TH", "ISO_3166-1_alpha-3": "THA", "_category": "place", "_type": "state", "continent": "Asia", "country": "Tailândia", "country_code": "th", "state": "จังหวัดภูเก็ต"}, "currency": {"alternate_symbols": [], "decimal_mark": ".", "html_entity": "&#x0E3F;", "iso_code": "THB", "iso_numeric": "764", "name": "Thai Baht", "smallest_denomination": 1, "subunit": "Satang", "subunit_to_unit": 100, "symbol": "฿", "symbol_first": 1, "thousands_separator": ","}, "link": "/phuket-241-c.html"}, {"search": "Siem Reap", "geometry": {"lat": 13.3617562, "lng": 103.8590321}, "components": {"ISO_3166-1_alpha-2": "KH", "ISO_3166-1_alpha-3": "KHM", "_category": "place", "_type": "city", "city": "ក្រុងសៀមរាប", "continent": "Asia", "country": "Camboja", "country_code": "kh", "county": "ក្រុងសៀមរាប", "postcode": "17524", "state": "ខេត្តសៀមរាប"}, "currency": {"alternate_symbols": [], "decimal_mark": ".", "format": "%n %u", "html_entity": "&#x17DB;", "iso_code": "KHR", "iso_numeric": "116", "name": "Cambodian Riel", "smallest_denomination": 5000, "subunit": "Sen", "subunit_to_unit": 100, "symbol": "៛", "symbol_first": 0, "thousands_separator": ","}, "link": "/siem-reap-150-c.html"}, {"search": "Singapura", "geometry": {"lat": 1.357107, "lng": 103.8194992}, "components": {"ISO_3166-1_alpha-2": "SG", "ISO_3166-1_alpha-3": "SGP", "_category": "place", "_type": "country", "continent": "Asia", "country": "Singapura", "country_code": "sg"}, "currency": {"alternate_symbols": ["S$"], "decimal_mark": ".", "disambiguate_symbol": "S$", "html_entity": "$", "iso_code": "SGD", "iso_numeric": "702", "name": "Singapore Dollar", "smallest_denomination": 1, "subunit": "Cent", "subunit_to_unit": 100, "symbol": "$", "symbol_first": 1, "thousands_separator": ","}, "link": "/singapura-208-c.html"}, {"search": "Taiwan", "geometry": {"lat": 23.9739374, "lng": 120.9820179}, "components": {"ISO_3166-1_alpha-2": "TW", "ISO_3166-1_alpha-3": "TWN", "_category": "place", "_type": "country", "continent": "Asia", "country": "Taiwan", "country_code": "tw"}, "currency": {"alternate_symbols": ["NT$"], "decimal_mark": ".", "disambiguate_symbol": "NT$", "html_entity": "$", "iso_code": "TWD", "iso_numeric": "901", "name": "New Taiwan Dollar", "smallest_denomination": 50, "subunit": "Cent", "subunit_to_unit": 100, "symbol": "$", "symbol_first": 1, "thousands_separator": ","}, "link": "/taiwan-232-c.html"}, {"search": "Tokyo", "geometry": {"lat": 35.6828387, "lng": 139.7594549}, "components": {"ISO_3166-1_alpha-2": "JP", "ISO_3166-1_alpha-3": "JPN", "_category": "place", "_type": "city", "city": "Tóquio", "continent": "Asia", "country": "Japão", "country_code": "jp"}, "currency": {"alternate_symbols": ["円", "圓"], "decimal_mark": ".", "html_entity": "&#x00A5;", "iso_code": "JPY", "iso_numeric": "392", "name": "Japanese Yen", "smallest_denomination": 1, "subunit_to_unit": 1, "symbol": "¥", "symbol_first": 1, "thousands_separator": ","}, "link": "/tokyo-japao-199-c.html"}, {"search": "Dubai", "geometry": {"lat": 25.2653471, "lng": 55.2924914}, "components": {"ISO_3166-1_alpha-2": "AE", "ISO_3166-1_alpha-3": "ARE", "_category": "place", "_type": "city", "city": "Dubai", "continent": "Asia", "country": "Emirados Árabes Unidos", "country_code": "ae", "postcode": "39205", "state": "دبي", "state_code": "DU"}, "currency": {"alternate_symbols": ["DH", "Dhs"], "decimal_mark": ".", "format": "%n %u", "html_entity": "", "iso_code": "AED", "iso_numeric": "784", "name": "United Arab Emirates Dirham", "smallest_denomination": 25, "subunit": "Fils", "subunit_to_unit": 100, "symbol": "د.إ", "symbol_first": 0, "thousands_separator": ","}, "link": "/dubai-213-c.html"}, {"search": "Irã", "geometry": {"lat": 32.6475314, "lng": 54.5643516}, "components": {"ISO_3166-1_alpha-2": "IR", "ISO_3166-1_alpha-3": "IRN", "_category": "place", "_type": "country", "continent": "Asia", "country": "Irão", "country_code": "ir"}, "currency": {"alternate_symbols": [], "decimal_mark": ".", "html_entity": "&#xFDFC;", "iso_code": "IRR", "iso_numeric": "364", "name": "Iranian Rial", "smallest_denomination": 5000, "subunit_to_unit": 100, "symbol": "﷼", "symbol_first": 1, "thousands_separator": ","}, "link": "/ira-223-c.html"}, {"search": "Israel", "geometry": {"lat": 30.8124247, "lng": 34.8594762}, "components": {"ISO_3166-1_alpha-2": "IL", "ISO_3166-1_alpha-3": "ISR", "_category": "place", "_type": "country", "continent": "Asia", "country": "Israel", "country_code": "il"}, "currency": {"alternate_symbols": ["ש״ח", "NIS"], "decimal_mark": ".", "html_entity": "&#x20AA;", "iso_code": "ILS", "iso_numeric": "376", "name": "Israeli New Sheqel", "smallest_denomination": 10, "subunit": "Agora", "subunit_to_unit": 100, "symbol": "₪", "symbol_first": 1, "thousands_separator": ","}, "link": "/israel-163-c.html"}, {"search": "Jordânia", "geometry": {"lat": 31.1667049, "lng": 36.941628}, "components": {"ISO_3166-1_alpha-2": "JO", "ISO_3166-1_alpha-3": "JOR", "_category": "place", "_type": "country", "continent": "Asia", "country": "Jordânia", "country_code": "jo"}, "currency": {"alternate_symbols": ["JD"], "decimal_mark": ".", "html_entity": "", "iso_code": "JOD", "iso_numeric": "400", "name": "Jordanian Dinar", "smallest_denomination": 5, "subunit": "Fils", "subunit_to_unit": 1000, "symbol": "د.ا", "symbol_first": 1, "thousands_separator": ","}, "link": "/jordania-228-c.html"}]